{
  "blunck": {
    "body": "Mars",
    "lat": -27.2282,
    "lon": -36.897,
    "lon_180": -36.89699999999999,
    "feature_type": null,
    "raw_name": "Blunck"
  },
  "martynov": {
    "body": "Mars",
    "lat": -30.3621,
    "lon": -36.4134,
    "lon_180": -36.413399999999996,
    "feature_type": null,
    "raw_name": "Martynov"
  },
  "vastitas borealis": {
    "body": "Mars",
    "lat": 87.7297,
    "lon": 32.5298,
    "lon_180": 32.529799999999994,
    "feature_type": null,
    "raw_name": "Vastitas Borealis"
  },
  "hephaestus rupes": {
    "body": "Mars",
    "lat": 23.5385,
    "lon": 114.9028,
    "lon_180": 114.90280000000001,
    "feature_type": null,
    "raw_name": "Hephaestus Rupēs"
  },
  "tenuis cavus": {
    "body": "Mars",
    "lat": 84.7639,
    "lon": 1.3883,
    "lon_180": 1.3882999999999868,
    "feature_type": null,
    "raw_name": "Tenuis Cavus"
  },
  "australe mensa": {
    "body": "Mars",
    "lat": -86.876,
    "lon": -2.75999999999999,
    "lon_180": -2.759999999999991,
    "feature_type": null,
    "raw_name": "Australe Mensa"
  },
  "artik": {
    "body": "Mars",
    "lat": -34.804,
    "lon": 130.9844,
    "lon_180": 130.9844,
    "feature_type": null,
    "raw_name": "Artik"
  },
  "koshoba": {
    "body": "Mars",
    "lat": 22.9271,
    "lon": 77.0034,
    "lon_180": 77.0034,
    "feature_type": null,
    "raw_name": "Koshoba"
  },
  "planum australe": {
    "body": "Mars",
    "lat": -83.35,
    "lon": 157.7,
    "lon_180": 157.7,
    "feature_type": null,
    "raw_name": "Planum Australe"
  },
  "ophir": {
    "body": "Mars",
    "lat": -9.885,
    "lon": -65.0,
    "lon_180": -65.0,
    "feature_type": null,
    "raw_name": "Ophir"
  },
  "phison": {
    "body": "Mars",
    "lat": 19.7836,
    "lon": 40.0,
    "lon_180": 40.0,
    "feature_type": null,
    "raw_name": "Phison"
  },
  "reutov": {
    "body": "Mars",
    "lat": -45.0735,
    "lon": -157.7103,
    "lon_180": -157.7103,
    "feature_type": null,
    "raw_name": "Reutov"
  },
  "belyov": {
    "body": "Mars",
    "lat": -45.02,
    "lon": -158.01,
    "lon_180": -158.01,
    "feature_type": null,
    "raw_name": "Belyov"
  },
  "tyuratam": {
    "body": "Mars",
    "lat": -45.04,
    "lon": -157.96,
    "lon_180": -157.96,
    "feature_type": null,
    "raw_name": "Tyuratam"
  },
  "electris mons": {
    "body": "Mars",
    "lat": -45.669,
    "lon": 152.7278,
    "lon_180": 152.7278,
    "feature_type": null,
    "raw_name": "Electris Mons"
  },
  "eridania mons": {
    "body": "Mars",
    "lat": -57.0205,
    "lon": 137.8649,
    "lon_180": 137.86490000000003,
    "feature_type": null,
    "raw_name": "Eridania Mons"
  },
  "sirenum mons": {
    "body": "Mars",
    "lat": -38.215,
    "lon": -147.8491,
    "lon_180": -147.8491,
    "feature_type": null,
    "raw_name": "Sirenum Mons"
  },
  "sirenum tholus": {
    "body": "Mars",
    "lat": -34.6441,
    "lon": -144.7865,
    "lon_180": -144.7865,
    "feature_type": null,
    "raw_name": "Sirenum Tholus"
  },
  "thaumasia": {
    "body": "Mars",
    "lat": -34.6828,
    "lon": -85.0,
    "lon_180": -85.0,
    "feature_type": null,
    "raw_name": "Thaumasia"
  },
  "new bern": {
    "body": "Mars",
    "lat": 21.5334,
    "lon": -49.1522,
    "lon_180": -49.15219999999999,
    "feature_type": null,
    "raw_name": "New Bern"
  },
  "novara": {
    "body": "Mars",
    "lat": -24.8979,
    "lon": -10.6878,
    "lon_180": -10.68780000000001,
    "feature_type": null,
    "raw_name": "Novara"
  },
  "portsmouth": {
    "body": "Mars",
    "lat": 22.5499,
    "lon": -49.0718,
    "lon_180": -49.071799999999996,
    "feature_type": null,
    "raw_name": "Portsmouth"
  },
  "perepelkin": {
    "body": "Mars",
    "lat": 52.4358,
    "lon": -64.8318,
    "lon_180": -64.8318,
    "feature_type": null,
    "raw_name": "Perepelkin"
  },
  "port-au-prince": {
    "body": "Mars",
    "lat": 21.1033,
    "lon": -48.1787,
    "lon_180": -48.17869999999999,
    "feature_type": null,
    "raw_name": "Port-Au-Prince"
  },
  "rahe": {
    "body": "Mars",
    "lat": 25.0542,
    "lon": -97.4786,
    "lon_180": -97.4786,
    "feature_type": null,
    "raw_name": "Rahe"
  },
  "rayleigh": {
    "body": "Mars",
    "lat": -75.5714,
    "lon": 118.9443,
    "lon_180": 118.9443,
    "feature_type": null,
    "raw_name": "Rayleigh"
  },
  "san juan": {
    "body": "Mars",
    "lat": 22.8729,
    "lon": -48.0393,
    "lon_180": -48.0393,
    "feature_type": null,
    "raw_name": "San Juan"
  },
  "santa cruz": {
    "body": "Mars",
    "lat": 21.2455,
    "lon": -47.2641,
    "lon_180": -47.264099999999985,
    "feature_type": null,
    "raw_name": "Santa Cruz"
  },
  "savannah": {
    "body": "Mars",
    "lat": 22.0207,
    "lon": -47.778,
    "lon_180": -47.77799999999999,
    "feature_type": null,
    "raw_name": "Savannah"
  },
  "sevel": {
    "body": "Mars",
    "lat": 79.2135,
    "lon": -36.2153,
    "lon_180": -36.21530000000001,
    "feature_type": null,
    "raw_name": "Sevel"
  },
  "puyo": {
    "body": "Mars",
    "lat": 83.9337,
    "lon": 137.2605,
    "lon_180": 137.26049999999998,
    "feature_type": null,
    "raw_name": "Puyo"
  },
  "tomari": {
    "body": "Mars",
    "lat": 19.9821,
    "lon": 113.7817,
    "lon_180": 113.7817,
    "feature_type": null,
    "raw_name": "Tomari"
  },
  "deucalionis regio": {
    "body": "Mars",
    "lat": -14.8317,
    "lon": 20.0,
    "lon_180": 20.0,
    "feature_type": null,
    "raw_name": "Deucalionis Regio"
  },
  "deuteronilus": {
    "body": "Mars",
    "lat": 34.6828,
    "lon": 0.0,
    "lon_180": 0.0,
    "feature_type": null,
    "raw_name": "Deuteronilus"
  },
  "tombe": {
    "body": "Mars",
    "lat": -42.4046,
    "lon": -44.5472,
    "lon_180": -44.547200000000004,
    "feature_type": null,
    "raw_name": "Tombe"
  },
  "wilmington": {
    "body": "Mars",
    "lat": 21.6046,
    "lon": -47.4745,
    "lon_180": -47.474500000000006,
    "feature_type": null,
    "raw_name": "Wilmington"
  },
  "tycho brahe": {
    "body": "Mars",
    "lat": -49.4052,
    "lon": 146.1175,
    "lon_180": 146.1175,
    "feature_type": null,
    "raw_name": "Tycho Brahe"
  },
  "yungay": {
    "body": "Mars",
    "lat": -43.8669,
    "lon": -44.7533,
    "lon_180": -44.753299999999996,
    "feature_type": null,
    "raw_name": "Yungay"
  },
  "dilly": {
    "body": "Mars",
    "lat": 13.2662,
    "lon": 157.222,
    "lon_180": 157.22199999999998,
    "feature_type": null,
    "raw_name": "Dilly"
  },
  "crotone": {
    "body": "Mars",
    "lat": 82.2127,
    "lon": -69.311,
    "lon_180": -69.311,
    "feature_type": null,
    "raw_name": "Crotone"
  },
  "ausonia": {
    "body": "Mars",
    "lat": -39.6672,
    "lon": 110.0,
    "lon_180": 110.0,
    "feature_type": null,
    "raw_name": "Ausonia"
  },
  "aeolis mons": {
    "body": "Mars",
    "lat": -5.0834,
    "lon": 137.8453,
    "lon_180": 137.8453,
    "feature_type": null,
    "raw_name": "Aeolis Mons"
  },
  "victoria": {
    "body": "Mars",
    "lat": -2.0523,
    "lon": -5.49799999999999,
    "lon_180": -5.4979999999999905,
    "feature_type": null,
    "raw_name": "Victoria"
  },
  "amazonis": {
    "body": "Mars",
    "lat": 0.0,
    "lon": -140.0,
    "lon_180": -140.0,
    "feature_type": null,
    "raw_name": "Amazonis"
  },
  "tivoli": {
    "body": "Mars",
    "lat": -14.3267,
    "lon": 100.91,
    "lon_180": 100.90999999999997,
    "feature_type": null,
    "raw_name": "Tivoli"
  },
  "ausonia montes": {
    "body": "Mars",
    "lat": -25.4165,
    "lon": 99.0444,
    "lon_180": 99.0444,
    "feature_type": null,
    "raw_name": "Ausonia Montes"
  },
  "endeavour": {
    "body": "Mars",
    "lat": -2.2836,
    "lon": -5.19549999999998,
    "lon_180": -5.195499999999981,
    "feature_type": null,
    "raw_name": "Endeavour"
  },
  "toro": {
    "body": "Mars",
    "lat": 17.0354,
    "lon": 71.8151,
    "lon_180": 71.8151,
    "feature_type": null,
    "raw_name": "Toro"
  },
  "charleston": {
    "body": "Mars",
    "lat": 22.6263,
    "lon": -47.7968,
    "lon_180": -47.79679999999999,
    "feature_type": null,
    "raw_name": "Charleston"
  },
  "galap": {
    "body": "Mars",
    "lat": -37.6605,
    "lon": -167.0683,
    "lon_180": -167.0683,
    "feature_type": null,
    "raw_name": "Galap"
  },
  "saravan": {
    "body": "Mars",
    "lat": -16.9289,
    "lon": -54.0196,
    "lon_180": -54.0196,
    "feature_type": null,
    "raw_name": "Saravan"
  },
  "danielson": {
    "body": "Mars",
    "lat": 7.9739,
    "lon": -7.05119999999999,
    "lon_180": -7.051199999999994,
    "feature_type": null,
    "raw_name": "Danielson"
  },
  "lipik": {
    "body": "Mars",
    "lat": -38.4142,
    "lon": 111.6113,
    "lon_180": 111.61130000000003,
    "feature_type": null,
    "raw_name": "Lipik"
  },
  "aurorae sinus": {
    "body": "Mars",
    "lat": -14.8317,
    "lon": -50.0,
    "lon_180": -50.0,
    "feature_type": null,
    "raw_name": "Aurorae Sinus"
  },
  "sarh": {
    "body": "Mars",
    "lat": -64.8456,
    "lon": -14.5761,
    "lon_180": -14.576099999999997,
    "feature_type": null,
    "raw_name": "Sarh"
  },
  "leighton": {
    "body": "Mars",
    "lat": 3.0795,
    "lon": 57.7517,
    "lon_180": 57.7517,
    "feature_type": null,
    "raw_name": "Leighton"
  },
  "cross": {
    "body": "Mars",
    "lat": -30.1962,
    "lon": -157.6912,
    "lon_180": -157.6912,
    "feature_type": null,
    "raw_name": "Cross"
  },
  "nereidum fretum": {
    "body": "Mars",
    "lat": -44.6618,
    "lon": -55.0,
    "lon_180": -55.0,
    "feature_type": null,
    "raw_name": "Nereidum Fretum"
  },
  "doba": {
    "body": "Mars",
    "lat": 10.9176,
    "lon": 119.6206,
    "lon_180": 119.62059999999997,
    "feature_type": null,
    "raw_name": "Doba"
  },
  "aonia mons": {
    "body": "Mars",
    "lat": -53.3301,
    "lon": -87.9163,
    "lon_180": -87.9163,
    "feature_type": null,
    "raw_name": "Aonia Mons"
  },
  "asimov": {
    "body": "Mars",
    "lat": -46.9681,
    "lon": 4.9252,
    "lon_180": 4.92519999999999,
    "feature_type": null,
    "raw_name": "Asimov"
  },
  "neith regio": {
    "body": "Mars",
    "lat": 37.6723,
    "lon": 88.0,
    "lon_180": 88.0,
    "feature_type": null,
    "raw_name": "Neith Regio"
  },
  "pursat": {
    "body": "Mars",
    "lat": -37.3593,
    "lon": 130.7574,
    "lon_180": 130.75739999999996,
    "feature_type": null,
    "raw_name": "Pursat"
  },
  "canillo": {
    "body": "Mars",
    "lat": 10.228,
    "lon": 116.4755,
    "lon_180": 116.47550000000001,
    "feature_type": null,
    "raw_name": "Canillo"
  },
  "kamnik": {
    "body": "Mars",
    "lat": -37.2059,
    "lon": -161.7895,
    "lon_180": -161.7895,
    "feature_type": null,
    "raw_name": "Kamnik"
  },
  "ehden": {
    "body": "Mars",
    "lat": 8.23,
    "lon": 119.0088,
    "lon_180": 119.00880000000001,
    "feature_type": null,
    "raw_name": "Ehden"
  },
  "gasa": {
    "body": "Mars",
    "lat": -35.7179,
    "lon": 129.3998,
    "lon_180": 129.39980000000003,
    "feature_type": null,
    "raw_name": "Gasa"
  },
  "horowitz": {
    "body": "Mars",
    "lat": -32.0599,
    "lon": 140.7532,
    "lon_180": 140.7532,
    "feature_type": null,
    "raw_name": "Horowitz"
  },
  "aonia tholus": {
    "body": "Mars",
    "lat": -59.0372,
    "lon": -80.04,
    "lon_180": -80.04,
    "feature_type": null,
    "raw_name": "Aonia Tholus"
  },
  "kandi": {
    "body": "Mars",
    "lat": -32.7458,
    "lon": 122.0971,
    "lon_180": 122.09710000000001,
    "feature_type": null,
    "raw_name": "Kandi"
  },
  "roseau": {
    "body": "Mars",
    "lat": -41.6872,
    "lon": 150.5697,
    "lon_180": 150.5697,
    "feature_type": null,
    "raw_name": "Roseau"
  },
  "nicer vallis": {
    "body": "Mars",
    "lat": -6.9643,
    "lon": -158.1905,
    "lon_180": -158.1905,
    "feature_type": null,
    "raw_name": "Nicer Vallis"
  },
  "yaren": {
    "body": "Mars",
    "lat": -43.8831,
    "lon": -137.4487,
    "lon_180": -137.4487,
    "feature_type": null,
    "raw_name": "Yaren"
  },
  "amenthes": {
    "body": "Mars",
    "lat": 4.9416,
    "lon": 110.0,
    "lon_180": 110.0,
    "feature_type": null,
    "raw_name": "Amenthes"
  },
  "colon": {
    "body": "Mars",
    "lat": 22.7492,
    "lon": -47.066,
    "lon_180": -47.066,
    "feature_type": null,
    "raw_name": "Colón"
  },
  "matara": {
    "body": "Mars",
    "lat": -49.6102,
    "lon": 34.5934,
    "lon_180": 34.5934,
    "feature_type": null,
    "raw_name": "Matara"
  },
  "siton undae": {
    "body": "Mars",
    "lat": 75.5509,
    "lon": -62.7197,
    "lon_180": -62.7197,
    "feature_type": null,
    "raw_name": "Siton Undae"
  },
  "kibuye": {
    "body": "Mars",
    "lat": -29.1279,
    "lon": -178.1844,
    "lon_180": -178.1844,
    "feature_type": null,
    "raw_name": "Kibuye"
  },
  "edom": {
    "body": "Mars",
    "lat": 0.0,
    "lon": 15.0,
    "lon_180": 15.0,
    "feature_type": null,
    "raw_name": "Edom"
  },
  "cankuzo": {
    "body": "Mars",
    "lat": -19.4217,
    "lon": 52.0341,
    "lon_180": 52.034099999999995,
    "feature_type": null,
    "raw_name": "Cankuzo"
  },
  "luqa": {
    "body": "Mars",
    "lat": -18.2259,
    "lon": 131.8245,
    "lon_180": 131.8245,
    "feature_type": null,
    "raw_name": "Luqa"
  },
  "oyama": {
    "body": "Mars",
    "lat": 23.5662,
    "lon": -20.112,
    "lon_180": -20.111999999999995,
    "feature_type": null,
    "raw_name": "Oyama"
  },
  "robert sharp": {
    "body": "Mars",
    "lat": -4.1666,
    "lon": 133.4229,
    "lon_180": 133.42290000000003,
    "feature_type": null,
    "raw_name": "Robert Sharp"
  },
  "avarua": {
    "body": "Mars",
    "lat": -35.926,
    "lon": 109.6649,
    "lon_180": 109.66489999999999,
    "feature_type": null,
    "raw_name": "Avarua"
  },
  "aeolis palus": {
    "body": "Mars",
    "lat": -4.4652,
    "lon": 137.4215,
    "lon_180": 137.42150000000004,
    "feature_type": null,
    "raw_name": "Aeolis Palus"
  },
  "harris": {
    "body": "Mars",
    "lat": -21.9047,
    "lon": 66.8073,
    "lon_180": 66.8073,
    "feature_type": null,
    "raw_name": "Harris"
  },
  "dowa": {
    "body": "Mars",
    "lat": -31.6577,
    "lon": 110.2383,
    "lon_180": 110.23829999999998,
    "feature_type": null,
    "raw_name": "Dowa"
  },
  "fitzroy": {
    "body": "Mars",
    "lat": -35.6866,
    "lon": 112.0589,
    "lon_180": 112.0589,
    "feature_type": null,
    "raw_name": "Fitzroy"
  },
  "greg": {
    "body": "Mars",
    "lat": -38.5938,
    "lon": 112.8932,
    "lon_180": 112.89319999999998,
    "feature_type": null,
    "raw_name": "Greg"
  },
  "pal": {
    "body": "Mars",
    "lat": -31.3071,
    "lon": 108.7034,
    "lon_180": 108.70339999999999,
    "feature_type": null,
    "raw_name": "Pál"
  },
  "milna": {
    "body": "Mars",
    "lat": -23.4631,
    "lon": -12.2388,
    "lon_180": -12.238799999999998,
    "feature_type": null,
    "raw_name": "Milna"
  },
  "vaduz": {
    "body": "Mars",
    "lat": 38.2366,
    "lon": 15.789,
    "lon_180": 15.788999999999987,
    "feature_type": null,
    "raw_name": "Vaduz"
  },
  "alitus": {
    "body": "Mars",
    "lat": -34.912,
    "lon": -38.1429,
    "lon_180": -38.1429,
    "feature_type": null,
    "raw_name": "Alitus"
  },
  "annapolis": {
    "body": "Mars",
    "lat": 23.1644,
    "lon": -47.7268,
    "lon_180": -47.7268,
    "feature_type": null,
    "raw_name": "Annapolis"
  },
  "cantoura": {
    "body": "Mars",
    "lat": 14.8386,
    "lon": -51.7161,
    "lon_180": -51.71609999999998,
    "feature_type": null,
    "raw_name": "Cantoura"
  },
  "diacria": {
    "body": "Mars",
    "lat": 49.6666,
    "lon": 180.0,
    "lon_180": 180.0,
    "feature_type": null,
    "raw_name": "Diacria"
  },
  "cypress": {
    "body": "Mars",
    "lat": -47.2805,
    "lon": -47.3528,
    "lon_180": -47.3528,
    "feature_type": null,
    "raw_name": "Cypress"
  },
  "tana vallis": {
    "body": "Mars",
    "lat": 4.7777,
    "lon": -27.886,
    "lon_180": -27.885999999999996,
    "feature_type": null,
    "raw_name": "Tana Vallis"
  },
  "du toit": {
    "body": "Mars",
    "lat": -71.6225,
    "lon": -49.5965,
    "lon_180": -49.59649999999999,
    "feature_type": null,
    "raw_name": "Du Toit"
  },
  "aeria": {
    "body": "Mars",
    "lat": 9.885,
    "lon": 50.0,
    "lon_180": 50.0,
    "feature_type": null,
    "raw_name": "Aeria"
  },
  "aetheria": {
    "body": "Mars",
    "lat": 39.6672,
    "lon": 130.0,
    "lon_180": 130.0,
    "feature_type": null,
    "raw_name": "Aetheria"
  },
  "aethiopis": {
    "body": "Mars",
    "lat": 9.885,
    "lon": 130.0,
    "lon_180": 130.0,
    "feature_type": null,
    "raw_name": "Aethiopis"
  },
  "eberswalde": {
    "body": "Mars",
    "lat": -23.9753,
    "lon": -33.2971,
    "lon_180": -33.2971,
    "feature_type": null,
    "raw_name": "Eberswalde"
  },
  "evpatoriya": {
    "body": "Mars",
    "lat": 46.9518,
    "lon": 134.361,
    "lon_180": 134.361,
    "feature_type": null,
    "raw_name": "Evpatoriya"
  },
  "gah": {
    "body": "Mars",
    "lat": -44.6941,
    "lon": -32.6376,
    "lon_180": -32.63759999999999,
    "feature_type": null,
    "raw_name": "Gah"
  },
  "nepenthes": {
    "body": "Mars",
    "lat": 19.7836,
    "lon": 100.0,
    "lon_180": 100.0,
    "feature_type": null,
    "raw_name": "Nepenthes"
  },
  "goldstone": {
    "body": "Mars",
    "lat": 47.7686,
    "lon": 134.5806,
    "lon_180": 134.5806,
    "feature_type": null,
    "raw_name": "Goldstone"
  },
  "lucaya": {
    "body": "Mars",
    "lat": -11.5542,
    "lon": 51.9094,
    "lon_180": 51.909400000000005,
    "feature_type": null,
    "raw_name": "Lucaya"
  },
  "groves": {
    "body": "Mars",
    "lat": -4.0634,
    "lon": -44.5508,
    "lon_180": -44.55080000000001,
    "feature_type": null,
    "raw_name": "Groves"
  },
  "hamaguir": {
    "body": "Mars",
    "lat": 48.6786,
    "lon": 132.5125,
    "lon_180": 132.5125,
    "feature_type": null,
    "raw_name": "Hamaguir"
  },
  "hsuanch'eng": {
    "body": "Mars",
    "lat": 46.7205,
    "lon": 132.6887,
    "lon_180": 132.68870000000004,
    "feature_type": null,
    "raw_name": "Hsūanch'eng"
  },
  "argyre": {
    "body": "Mars",
    "lat": -44.6618,
    "lon": -25.0,
    "lon_180": -25.0,
    "feature_type": null,
    "raw_name": "Argyre"
  },
  "inta": {
    "body": "Mars",
    "lat": -24.355,
    "lon": -25.105,
    "lon_180": -25.10499999999999,
    "feature_type": null,
    "raw_name": "Inta"
  },
  "aeolis": {
    "body": "Mars",
    "lat": -4.9416,
    "lon": 145.0,
    "lon_180": 145.0,
    "feature_type": null,
    "raw_name": "Aeolis"
  },
  "johannesburg": {
    "body": "Mars",
    "lat": 47.9218,
    "lon": 133.1868,
    "lon_180": 133.1868,
    "feature_type": null,
    "raw_name": "Johannesburg"
  },
  "arcadia": {
    "body": "Mars",
    "lat": 44.6618,
    "lon": -100.0,
    "lon_180": -100.0,
    "feature_type": null,
    "raw_name": "Arcadia"
  },
  "kagoshima": {
    "body": "Mars",
    "lat": 47.3189,
    "lon": 135.7293,
    "lon_180": 135.72929999999997,
    "feature_type": null,
    "raw_name": "Kagoshima"
  },
  "kaliningrad": {
    "body": "Mars",
    "lat": 48.4744,
    "lon": 134.9628,
    "lon_180": 134.96280000000002,
    "feature_type": null,
    "raw_name": "Kaliningrad"
  },
  "kingston": {
    "body": "Mars",
    "lat": 22.1071,
    "lon": -47.0357,
    "lon_180": -47.03569999999999,
    "feature_type": null,
    "raw_name": "Kingston"
  },
  "la paz": {
    "body": "Mars",
    "lat": 21.0495,
    "lon": -49.0295,
    "lon_180": -49.029499999999985,
    "feature_type": null,
    "raw_name": "La Paz"
  },
  "liais": {
    "body": "Mars",
    "lat": -75.3044,
    "lon": 106.9293,
    "lon_180": 106.92930000000001,
    "feature_type": null,
    "raw_name": "Liais"
  },
  "lisboa": {
    "body": "Mars",
    "lat": 21.243,
    "lon": -47.5851,
    "lon_180": -47.58510000000001,
    "feature_type": null,
    "raw_name": "Lisboa"
  },
  "manah": {
    "body": "Mars",
    "lat": -4.6589,
    "lon": -33.6095,
    "lon_180": -33.6095,
    "feature_type": null,
    "raw_name": "Manah"
  },
  "kontum": {
    "body": "Mars",
    "lat": -32.0362,
    "lon": -67.0702,
    "lon_180": -67.0702,
    "feature_type": null,
    "raw_name": "Kontum"
  },
  "aonium sinus": {
    "body": "Mars",
    "lat": -44.6618,
    "lon": -105.0,
    "lon_180": -105.0,
    "feature_type": null,
    "raw_name": "Aonium Sinus"
  },
  "arabia": {
    "body": "Mars",
    "lat": 19.7836,
    "lon": 30.0,
    "lon_180": 30.0,
    "feature_type": null,
    "raw_name": "Arabia"
  },
  "lismore": {
    "body": "Mars",
    "lat": 27.0424,
    "lon": -41.6466,
    "lon_180": -41.64660000000001,
    "feature_type": null,
    "raw_name": "Lismore"
  },
  "arnon": {
    "body": "Mars",
    "lat": 47.6634,
    "lon": 25.0,
    "lon_180": 25.0,
    "feature_type": null,
    "raw_name": "Arnon"
  },
  "makhambet": {
    "body": "Mars",
    "lat": 28.4294,
    "lon": -40.4734,
    "lon_180": -40.4734,
    "feature_type": null,
    "raw_name": "Makhambet"
  },
  "claritas": {
    "body": "Mars",
    "lat": -34.6828,
    "lon": -110.0,
    "lon_180": -110.0,
    "feature_type": null,
    "raw_name": "Claritas"
  },
  "martin": {
    "body": "Mars",
    "lat": -21.3448,
    "lon": -69.251,
    "lon_180": -69.251,
    "feature_type": null,
    "raw_name": "Martin"
  },
  "copais palus": {
    "body": "Mars",
    "lat": 54.6815,
    "lon": 80.0,
    "lon_180": 80.0,
    "feature_type": null,
    "raw_name": "Copais Palus"
  },
  "mazamba": {
    "body": "Mars",
    "lat": -27.5319,
    "lon": -69.673,
    "lon_180": -69.673,
    "feature_type": null,
    "raw_name": "Mazamba"
  },
  "coprates": {
    "body": "Mars",
    "lat": -14.8317,
    "lon": -65.0,
    "lon_180": -65.0,
    "feature_type": null,
    "raw_name": "Coprates"
  },
  "nakusp": {
    "body": "Mars",
    "lat": 24.7317,
    "lon": -35.4469,
    "lon_180": -35.4469,
    "feature_type": null,
    "raw_name": "Nakusp"
  },
  "baltia": {
    "body": "Mars",
    "lat": 59.7062,
    "lon": -50.0,
    "lon_180": -50.0,
    "feature_type": null,
    "raw_name": "Baltia"
  },
  "pebas": {
    "body": "Mars",
    "lat": -2.5965,
    "lon": -0.9598,
    "lon_180": -0.9598000000000013,
    "feature_type": null,
    "raw_name": "Pebas"
  },
  "ohara": {
    "body": "Mars",
    "lat": 4.9176,
    "lon": 82.4846,
    "lon_180": 82.4846,
    "feature_type": null,
    "raw_name": "Ohara"
  },
  "gehon": {
    "body": "Mars",
    "lat": 14.8317,
    "lon": 0.0,
    "lon_180": 0.0,
    "feature_type": null,
    "raw_name": "Gehon"
  },
  "sefadu": {
    "body": "Mars",
    "lat": 28.7381,
    "lon": -34.9741,
    "lon_180": -34.97409999999999,
    "feature_type": null,
    "raw_name": "Sefadu"
  },
  "runanga": {
    "body": "Mars",
    "lat": -26.6425,
    "lon": 75.9597,
    "lon_180": 75.9597,
    "feature_type": null,
    "raw_name": "Runanga"
  },
  "shardi": {
    "body": "Mars",
    "lat": 10.0465,
    "lon": -15.3231,
    "lon_180": -15.32310000000001,
    "feature_type": null,
    "raw_name": "Shardi"
  },
  "soffen": {
    "body": "Mars",
    "lat": -23.7273,
    "lon": 140.863,
    "lon_180": 140.863,
    "feature_type": null,
    "raw_name": "Soffen"
  },
  "boreosyrtis": {
    "body": "Mars",
    "lat": 54.6815,
    "lon": 70.0,
    "lon_180": 70.0,
    "feature_type": null,
    "raw_name": "Boreosyrtis"
  },
  "taytay": {
    "body": "Mars",
    "lat": 7.3887,
    "lon": -19.5973,
    "lon_180": -19.59729999999999,
    "feature_type": null,
    "raw_name": "Taytay"
  },
  "cyclopia": {
    "body": "Mars",
    "lat": -4.9416,
    "lon": 130.0,
    "lon_180": 130.0,
    "feature_type": null,
    "raw_name": "Cyclopia"
  },
  "cydonia": {
    "body": "Mars",
    "lat": 39.6672,
    "lon": 0.0,
    "lon_180": 0.0,
    "feature_type": null,
    "raw_name": "Cydonia"
  },
  "uzer": {
    "body": "Mars",
    "lat": -1.2198,
    "lon": -1.74829999999997,
    "lon_180": -1.748299999999972,
    "feature_type": null,
    "raw_name": "Uzer"
  },
  "woking": {
    "body": "Mars",
    "lat": 5.1198,
    "lon": 82.9903,
    "lon_180": 82.99029999999999,
    "feature_type": null,
    "raw_name": "Woking"
  },
  "xainza": {
    "body": "Mars",
    "lat": 0.7752,
    "lon": -3.93639999999999,
    "lon_180": -3.936399999999992,
    "feature_type": null,
    "raw_name": "Xainza"
  },
  "yalgoo": {
    "body": "Mars",
    "lat": 4.9315,
    "lon": 84.2295,
    "lon_180": 84.22950000000003,
    "feature_type": null,
    "raw_name": "Yalgoo"
  },
  "candor": {
    "body": "Mars",
    "lat": 2.9649,
    "lon": -75.0,
    "lon_180": -75.0,
    "feature_type": null,
    "raw_name": "Candor"
  },
  "casius": {
    "body": "Mars",
    "lat": 39.6672,
    "lon": 100.0,
    "lon_180": 100.0,
    "feature_type": null,
    "raw_name": "Casius"
  },
  "deltoton sinus": {
    "body": "Mars",
    "lat": -3.9532,
    "lon": 55.0,
    "lon_180": 55.0,
    "feature_type": null,
    "raw_name": "Deltoton Sinus"
  },
  "ceraunius": {
    "body": "Mars",
    "lat": 19.7836,
    "lon": -93.0,
    "lon_180": -93.0,
    "feature_type": null,
    "raw_name": "Ceraunius"
  },
  "zarand": {
    "body": "Mars",
    "lat": -3.4117,
    "lon": -1.49719999999996,
    "lon_180": -1.497199999999964,
    "feature_type": null,
    "raw_name": "Zarand"
  },
  "elysium": {
    "body": "Mars",
    "lat": 24.7419,
    "lon": 150.0,
    "lon_180": 150.0,
    "feature_type": null,
    "raw_name": "Elysium"
  },
  "kolonga": {
    "body": "Mars",
    "lat": 8.3208,
    "lon": -54.9429,
    "lon_180": -54.94290000000001,
    "feature_type": null,
    "raw_name": "Kolonga"
  },
  "depressio hellespontica": {
    "body": "Mars",
    "lat": -59.7062,
    "lon": 20.0,
    "lon_180": 20.0,
    "feature_type": null,
    "raw_name": "Depressio Hellespontica"
  },
  "chaman": {
    "body": "Mars",
    "lat": -60.8642,
    "lon": 50.9628,
    "lon_180": 50.962800000000016,
    "feature_type": null,
    "raw_name": "Chaman"
  },
  "cebrenia": {
    "body": "Mars",
    "lat": 49.6666,
    "lon": 150.0,
    "lon_180": 150.0,
    "feature_type": null,
    "raw_name": "Cebrenia"
  },
  "cecropia": {
    "body": "Mars",
    "lat": 59.7062,
    "lon": 40.0,
    "lon_180": 40.0,
    "feature_type": null,
    "raw_name": "Cecropia"
  },
  "cerberus": {
    "body": "Mars",
    "lat": 14.8317,
    "lon": 155.0,
    "lon_180": 155.0,
    "feature_type": null,
    "raw_name": "Cerberus"
  },
  "chalce": {
    "body": "Mars",
    "lat": -49.6666,
    "lon": 0.0,
    "lon_180": 0.0,
    "feature_type": null,
    "raw_name": "Chalce"
  },
  "dukhan": {
    "body": "Mars",
    "lat": 7.7557,
    "lon": -39.1417,
    "lon_180": -39.141700000000014,
    "feature_type": null,
    "raw_name": "Dukhan"
  },
  "eilat": {
    "body": "Mars",
    "lat": -56.5298,
    "lon": 50.2025,
    "lon_180": 50.202499999999986,
    "feature_type": null,
    "raw_name": "Eilat"
  },
  "chersonesus": {
    "body": "Mars",
    "lat": -49.6666,
    "lon": 100.0,
    "lon_180": 100.0,
    "feature_type": null,
    "raw_name": "Chersonesus"
  },
  "moroz": {
    "body": "Mars",
    "lat": -23.7713,
    "lon": -20.573,
    "lon_180": -20.573000000000008,
    "feature_type": null,
    "raw_name": "Moroz"
  },
  "chryse": {
    "body": "Mars",
    "lat": 9.885,
    "lon": -30.0,
    "lon_180": -30.0,
    "feature_type": null,
    "raw_name": "Chryse"
  },
  "chrysokeras": {
    "body": "Mars",
    "lat": -49.6666,
    "lon": -110.0,
    "lon_180": -110.0,
    "feature_type": null,
    "raw_name": "Chrysokeras"
  },
  "henry moore": {
    "body": "Mars",
    "lat": -59.7235,
    "lon": 53.8954,
    "lon_180": 53.895399999999995,
    "feature_type": null,
    "raw_name": "Henry Moore"
  },
  "pau": {
    "body": "Mars",
    "lat": -55.403,
    "lon": 59.3031,
    "lon_180": 59.3031,
    "feature_type": null,
    "raw_name": "Pau"
  },
  "vernal": {
    "body": "Mars",
    "lat": 5.9029,
    "lon": -4.4452,
    "lon_180": -4.4452,
    "feature_type": null,
    "raw_name": "Vernal"
  },
  "wynn-williams": {
    "body": "Mars",
    "lat": -55.098,
    "lon": 60.2114,
    "lon_180": 60.2114,
    "feature_type": null,
    "raw_name": "Wynn-Williams"
  },
  "electris": {
    "body": "Mars",
    "lat": -44.6618,
    "lon": 170.0,
    "lon_180": 170.0,
    "feature_type": null,
    "raw_name": "Electris"
  },
  "louth": {
    "body": "Mars",
    "lat": 70.1882,
    "lon": 103.2361,
    "lon_180": 103.23609999999996,
    "feature_type": null,
    "raw_name": "Louth"
  },
  "henbury": {
    "body": "Mars",
    "lat": -63.4946,
    "lon": -147.7264,
    "lon_180": -147.7264,
    "feature_type": null,
    "raw_name": "Henbury"
  },
  "camichel": {
    "body": "Mars",
    "lat": 2.2618,
    "lon": -51.6096,
    "lon_180": -51.6096,
    "feature_type": null,
    "raw_name": "Camichel"
  },
  "layla": {
    "body": "Mars",
    "lat": -61.1063,
    "lon": 107.1175,
    "lon_180": 107.1175,
    "feature_type": null,
    "raw_name": "Laylá"
  },
  "lonar": {
    "body": "Mars",
    "lat": 72.9914,
    "lon": 38.289,
    "lon_180": 38.28899999999999,
    "feature_type": null,
    "raw_name": "Lonar"
  },
  "maricourt": {
    "body": "Mars",
    "lat": 53.3382,
    "lon": -71.168,
    "lon_180": -71.168,
    "feature_type": null,
    "raw_name": "Maricourt"
  },
  "steinheim": {
    "body": "Mars",
    "lat": 54.5735,
    "lon": -169.3501,
    "lon_180": -169.3501,
    "feature_type": null,
    "raw_name": "Steinheim"
  },
  "sinton": {
    "body": "Mars",
    "lat": 40.7534,
    "lon": 31.732,
    "lon_180": 31.732,
    "feature_type": null,
    "raw_name": "Sinton"
  },
  "juventae fons": {
    "body": "Mars",
    "lat": -4.9416,
    "lon": -63.0,
    "lon_180": -63.0,
    "feature_type": null,
    "raw_name": "Juventae Fons"
  },
  "jezero": {
    "body": "Mars",
    "lat": 18.4082,
    "lon": 77.6873,
    "lon_180": 77.6873,
    "feature_type": null,
    "raw_name": "Jezero"
  },
  "dioscuria": {
    "body": "Mars",
    "lat": 49.6666,
    "lon": 40.0,
    "lon_180": 40.0,
    "feature_type": null,
    "raw_name": "Dioscuria"
  },
  "miyamoto": {
    "body": "Mars",
    "lat": -2.868,
    "lon": -6.94989999999996,
    "lon_180": -6.949899999999957,
    "feature_type": null,
    "raw_name": "Miyamoto"
  },
  "liberta": {
    "body": "Mars",
    "lat": 35.2263,
    "lon": -55.4464,
    "lon_180": -55.4464,
    "feature_type": null,
    "raw_name": "Liberta"
  },
  "euphrates": {
    "body": "Mars",
    "lat": 19.7836,
    "lon": 25.0,
    "lon_180": 25.0,
    "feature_type": null,
    "raw_name": "Euphrates"
  },
  "capen": {
    "body": "Mars",
    "lat": 6.5806,
    "lon": 14.313,
    "lon_180": 14.312999999999988,
    "feature_type": null,
    "raw_name": "Capen"
  },
  "penticton": {
    "body": "Mars",
    "lat": -38.3718,
    "lon": 96.7648,
    "lon_180": 96.76479999999998,
    "feature_type": null,
    "raw_name": "Penticton"
  },
  "hyperboreus (lacus)": {
    "body": "Mars",
    "lat": 74.83,
    "lon": -60.0,
    "lon_180": -60.0,
    "feature_type": null,
    "raw_name": "Hyperboreus (Lacus)"
  },
  "coimbra": {
    "body": "Mars",
    "lat": 4.1764,
    "lon": -5.31399999999996,
    "lon_180": -5.3139999999999645,
    "feature_type": null,
    "raw_name": "Coimbra"
  },
  "sibut": {
    "body": "Mars",
    "lat": 9.679,
    "lon": -49.351,
    "lon_180": -49.351,
    "feature_type": null,
    "raw_name": "Sibut"
  },
  "kalocsa": {
    "body": "Mars",
    "lat": 6.923,
    "lon": -6.94909999999999,
    "lon_180": -6.949099999999987,
    "feature_type": null,
    "raw_name": "Kalocsa"
  },
  "mellit": {
    "body": "Mars",
    "lat": 7.1238,
    "lon": -1.73419999999999,
    "lon_180": -1.734199999999987,
    "feature_type": null,
    "raw_name": "Mellit"
  },
  "eridania": {
    "body": "Mars",
    "lat": -44.6618,
    "lon": 140.0,
    "lon_180": 140.0,
    "feature_type": null,
    "raw_name": "Eridania"
  },
  "naruko": {
    "body": "Mars",
    "lat": -36.2353,
    "lon": -161.6998,
    "lon_180": -161.6998,
    "feature_type": null,
    "raw_name": "Naruko"
  },
  "phedra": {
    "body": "Mars",
    "lat": 13.8371,
    "lon": 123.8762,
    "lon_180": 123.87619999999998,
    "feature_type": null,
    "raw_name": "Phedra"
  },
  "tavua": {
    "body": "Mars",
    "lat": 15.6233,
    "lon": 117.614,
    "lon_180": 117.61400000000003,
    "feature_type": null,
    "raw_name": "Tavua"
  },
  "avire": {
    "body": "Mars",
    "lat": -40.8206,
    "lon": -159.7559,
    "lon_180": -159.7559,
    "feature_type": null,
    "raw_name": "Avire"
  },
  "naryn": {
    "body": "Mars",
    "lat": 14.889,
    "lon": 123.2955,
    "lon_180": 123.2955,
    "feature_type": null,
    "raw_name": "Naryn"
  },
  "zaranj": {
    "body": "Mars",
    "lat": 12.093,
    "lon": 113.0543,
    "lon_180": 113.05430000000001,
    "feature_type": null,
    "raw_name": "Zaranj"
  },
  "niquero": {
    "body": "Mars",
    "lat": -38.7868,
    "lon": -165.9714,
    "lon_180": -165.9714,
    "feature_type": null,
    "raw_name": "Niquero"
  },
  "triolet": {
    "body": "Mars",
    "lat": -37.0864,
    "lon": -168.0234,
    "lon_180": -168.0234,
    "feature_type": null,
    "raw_name": "Triolet"
  },
  "jamuna": {
    "body": "Mars",
    "lat": 9.885,
    "lon": -40.0,
    "lon_180": -40.0,
    "feature_type": null,
    "raw_name": "Jamuna"
  },
  "wiltz": {
    "body": "Mars",
    "lat": 15.5393,
    "lon": 159.2114,
    "lon_180": 159.21140000000003,
    "feature_type": null,
    "raw_name": "Wiltz"
  },
  "corinto": {
    "body": "Mars",
    "lat": 16.9467,
    "lon": 141.7072,
    "lon_180": 141.7072,
    "feature_type": null,
    "raw_name": "Corinto"
  },
  "thila": {
    "body": "Mars",
    "lat": 18.11,
    "lon": 155.5247,
    "lon_180": 155.5247,
    "feature_type": null,
    "raw_name": "Thila"
  },
  "heimdal": {
    "body": "Mars",
    "lat": 68.3254,
    "lon": -124.5606,
    "lon_180": -124.5606,
    "feature_type": null,
    "raw_name": "Heimdal"
  },
  "bogia": {
    "body": "Mars",
    "lat": -44.3117,
    "lon": 83.2678,
    "lon_180": 83.26779999999997,
    "feature_type": null,
    "raw_name": "Bogia"
  },
  "okavango valles": {
    "body": "Mars",
    "lat": 38.0978,
    "lon": 8.9665,
    "lon_180": 8.966499999999996,
    "feature_type": null,
    "raw_name": "Okavango Valles"
  },
  "ii thyle i": {
    "body": "Mars",
    "lat": -69.7816,
    "lon": 180.0,
    "lon_180": 180.0,
    "feature_type": null,
    "raw_name": "II Thyle I"
  },
  "yat": {
    "body": "Mars",
    "lat": 18.1296,
    "lon": -29.03,
    "lon_180": -29.03,
    "feature_type": null,
    "raw_name": "Yat"
  },
  "yebra": {
    "body": "Mars",
    "lat": 20.7907,
    "lon": 105.6876,
    "lon_180": 105.68759999999997,
    "feature_type": null,
    "raw_name": "Yebra"
  },
  "yegros": {
    "body": "Mars",
    "lat": -22.3029,
    "lon": -23.6646,
    "lon_180": -23.664600000000007,
    "feature_type": null,
    "raw_name": "Yegros"
  },
  "yorktown": {
    "body": "Mars",
    "lat": 22.877,
    "lon": -48.6515,
    "lon_180": -48.6515,
    "feature_type": null,
    "raw_name": "Yorktown"
  },
  "yoro": {
    "body": "Mars",
    "lat": 22.7992,
    "lon": -28.0418,
    "lon_180": -28.041799999999995,
    "feature_type": null,
    "raw_name": "Yoro"
  },
  "yuty": {
    "body": "Mars",
    "lat": 22.1589,
    "lon": -34.0944,
    "lon_180": -34.09440000000001,
    "feature_type": null,
    "raw_name": "Yuty"
  },
  "zutphen": {
    "body": "Mars",
    "lat": -13.8527,
    "lon": 174.318,
    "lon_180": 174.31799999999998,
    "feature_type": null,
    "raw_name": "Zutphen"
  },
  "zhigou": {
    "body": "Mars",
    "lat": -29.1017,
    "lon": -102.5871,
    "lon_180": -102.5871,
    "feature_type": null,
    "raw_name": "Zhigou"
  },
  "hellas": {
    "body": "Mars",
    "lat": -39.6672,
    "lon": 70.0,
    "lon_180": 70.0,
    "feature_type": null,
    "raw_name": "Hellas"
  },
  "hellespontus": {
    "body": "Mars",
    "lat": -49.6666,
    "lon": 35.0,
    "lon_180": 35.0,
    "feature_type": null,
    "raw_name": "Hellespontus"
  },
  "zilair": {
    "body": "Mars",
    "lat": -31.8093,
    "lon": -32.937,
    "lon_180": -32.93700000000001,
    "feature_type": null,
    "raw_name": "Zilair"
  },
  "zir": {
    "body": "Mars",
    "lat": 18.545,
    "lon": -36.5425,
    "lon_180": -36.54249999999999,
    "feature_type": null,
    "raw_name": "Zir"
  },
  "hesperia": {
    "body": "Mars",
    "lat": -19.7836,
    "lon": 120.0,
    "lon_180": 120.0,
    "feature_type": null,
    "raw_name": "Hesperia"
  },
  "hiddekel": {
    "body": "Mars",
    "lat": 14.8317,
    "lon": 15.0,
    "lon_180": 15.0,
    "feature_type": null,
    "raw_name": "Hiddekel"
  },
  "iapygia (iapigia)": {
    "body": "Mars",
    "lat": -19.7836,
    "lon": 65.0,
    "lon_180": 65.0,
    "feature_type": null,
    "raw_name": "Iapygia (Iapigia)"
  },
  "zongo": {
    "body": "Mars",
    "lat": -33.7555,
    "lon": -41.692,
    "lon_180": -41.69200000000001,
    "feature_type": null,
    "raw_name": "Zongo"
  },
  "zuni": {
    "body": "Mars",
    "lat": 19.2201,
    "lon": -29.5756,
    "lon_180": -29.57560000000001,
    "feature_type": null,
    "raw_name": "Zuni"
  },
  "zunil": {
    "body": "Mars",
    "lat": 7.7002,
    "lon": 166.1879,
    "lon_180": 166.1879,
    "feature_type": null,
    "raw_name": "Zunil"
  },
  "omura": {
    "body": "Mars",
    "lat": -25.3627,
    "lon": -25.2144,
    "lon_180": -25.214400000000012,
    "feature_type": null,
    "raw_name": "Ōmura"
  },
  "zulanka": {
    "body": "Mars",
    "lat": -2.2711,
    "lon": -42.1602,
    "lon_180": -42.1602,
    "feature_type": null,
    "raw_name": "Žulanka"
  },
  "icaria": {
    "body": "Mars",
    "lat": -39.6672,
    "lon": -130.0,
    "lon_180": -130.0,
    "feature_type": null,
    "raw_name": "Icaria"
  },
  "gratteri": {
    "body": "Mars",
    "lat": -17.7071,
    "lon": -160.0578,
    "lon_180": -160.0578,
    "feature_type": null,
    "raw_name": "Gratteri"
  },
  "tomini": {
    "body": "Mars",
    "lat": 16.2618,
    "lon": 125.8785,
    "lon_180": 125.87850000000003,
    "feature_type": null,
    "raw_name": "Tomini"
  },
  "zumba": {
    "body": "Mars",
    "lat": -28.6685,
    "lon": -133.0739,
    "lon_180": -133.0739,
    "feature_type": null,
    "raw_name": "Zumba"
  },
  "culter": {
    "body": "Mars",
    "lat": -8.8428,
    "lon": -53.934,
    "lon_180": -53.934,
    "feature_type": null,
    "raw_name": "Culter"
  },
  "lemuria": {
    "body": "Mars",
    "lat": 69.7816,
    "lon": 160.0,
    "lon_180": 160.0,
    "feature_type": null,
    "raw_name": "Lemuria"
  },
  "gamboa": {
    "body": "Mars",
    "lat": 40.765,
    "lon": -44.3604,
    "lon_180": -44.3604,
    "feature_type": null,
    "raw_name": "Gamboa"
  },
  "ismenius lacus": {
    "body": "Mars",
    "lat": 39.6672,
    "lon": 30.0,
    "lon_180": 30.0,
    "feature_type": null,
    "raw_name": "Ismenius Lacus"
  },
  "udzha": {
    "body": "Mars",
    "lat": 81.9222,
    "lon": 77.348,
    "lon_180": 77.34800000000001,
    "feature_type": null,
    "raw_name": "Udzha"
  },
  "toconao": {
    "body": "Mars",
    "lat": -20.8506,
    "lon": -74.6854,
    "lon_180": -74.6854,
    "feature_type": null,
    "raw_name": "Toconao"
  },
  "winslow": {
    "body": "Mars",
    "lat": -3.7397,
    "lon": 59.1555,
    "lon_180": 59.15550000000002,
    "feature_type": null,
    "raw_name": "Winslow"
  },
  "beloha": {
    "body": "Mars",
    "lat": -39.575,
    "lon": 56.7114,
    "lon_180": 56.7114,
    "feature_type": null,
    "raw_name": "Beloha"
  },
  "saheki": {
    "body": "Mars",
    "lat": -21.7416,
    "lon": 73.1354,
    "lon_180": 73.1354,
    "feature_type": null,
    "raw_name": "Saheki"
  },
  "karzok": {
    "body": "Mars",
    "lat": 18.4035,
    "lon": -131.7371,
    "lon_180": -131.7371,
    "feature_type": null,
    "raw_name": "Karzok"
  },
  "pangboche": {
    "body": "Mars",
    "lat": 17.2784,
    "lon": -133.4041,
    "lon_180": -133.4041,
    "feature_type": null,
    "raw_name": "Pangboche"
  },
  "laestrygon (laestrigon)": {
    "body": "Mars",
    "lat": 0.0,
    "lon": 160.0,
    "lon_180": 160.0,
    "feature_type": null,
    "raw_name": "Laestrygon (Laestrigon)"
  },
  "boola": {
    "body": "Mars",
    "lat": 81.2647,
    "lon": -105.1941,
    "lon_180": -105.1941,
    "feature_type": null,
    "raw_name": "Boola"
  },
  "jojutla": {
    "body": "Mars",
    "lat": 81.5892,
    "lon": -169.8028,
    "lon_180": -169.8028,
    "feature_type": null,
    "raw_name": "Jojutla"
  },
  "tombaugh": {
    "body": "Mars",
    "lat": 3.558,
    "lon": 161.9237,
    "lon_180": 161.9237,
    "feature_type": null,
    "raw_name": "Tombaugh"
  },
  "persbo": {
    "body": "Mars",
    "lat": 8.5653,
    "lon": 156.8764,
    "lon_180": 156.8764,
    "feature_type": null,
    "raw_name": "Persbo"
  },
  "ada": {
    "body": "Mars",
    "lat": -3.0605,
    "lon": -3.22429999999997,
    "lon_180": -3.224299999999971,
    "feature_type": null,
    "raw_name": "Ada"
  },
  "libya": {
    "body": "Mars",
    "lat": 0.0,
    "lon": 90.0,
    "lon_180": 90.0,
    "feature_type": null,
    "raw_name": "Libya"
  },
  "alamos": {
    "body": "Mars",
    "lat": 23.4828,
    "lon": -37.1242,
    "lon_180": -37.1242,
    "feature_type": null,
    "raw_name": "Alamos"
  },
  "lunae palus": {
    "body": "Mars",
    "lat": 14.8317,
    "lon": -65.0,
    "lon_180": -65.0,
    "feature_type": null,
    "raw_name": "Lunae Palus"
  },
  "meroe": {
    "body": "Mars",
    "lat": 34.6828,
    "lon": 75.0,
    "lon_180": 75.0,
    "feature_type": null,
    "raw_name": "Meroe"
  },
  "beruri": {
    "body": "Mars",
    "lat": 5.2656,
    "lon": 81.2354,
    "lon_180": 81.23540000000003,
    "feature_type": null,
    "raw_name": "Beruri"
  },
  "bopolu": {
    "body": "Mars",
    "lat": -2.963,
    "lon": -6.29739999999998,
    "lon_180": -6.297399999999982,
    "feature_type": null,
    "raw_name": "Bopolu"
  },
  "cefalu": {
    "body": "Mars",
    "lat": 23.636,
    "lon": -38.8884,
    "lon_180": -38.88839999999999,
    "feature_type": null,
    "raw_name": "Cefalù"
  },
  "chupadero": {
    "body": "Mars",
    "lat": 6.1328,
    "lon": 83.4339,
    "lon_180": 83.4339,
    "feature_type": null,
    "raw_name": "Chupadero"
  },
  "mare acidalium": {
    "body": "Mars",
    "lat": 44.6618,
    "lon": -30.0,
    "lon_180": -30.0,
    "feature_type": null,
    "raw_name": "Mare Acidalium"
  },
  "mare australe": {
    "body": "Mars",
    "lat": -59.7062,
    "lon": -10.0,
    "lon_180": -10.0,
    "feature_type": null,
    "raw_name": "Mare Australe"
  },
  "mare boreum": {
    "body": "Mars",
    "lat": 59.7062,
    "lon": 180.0,
    "lon_180": 180.0,
    "feature_type": null,
    "raw_name": "Mare Boreum"
  },
  "mare chronium": {
    "body": "Mars",
    "lat": -57.6952,
    "lon": 150.0,
    "lon_180": 150.0,
    "feature_type": null,
    "raw_name": "Mare Chronium"
  },
  "mare cimmerium": {
    "body": "Mars",
    "lat": -19.7836,
    "lon": 140.0,
    "lon_180": 140.0,
    "feature_type": null,
    "raw_name": "Mare Cimmerium"
  },
  "mare erythraeum": {
    "body": "Mars",
    "lat": -24.7419,
    "lon": -40.0,
    "lon_180": -40.0,
    "feature_type": null,
    "raw_name": "Mare Erythraeum"
  },
  "mare hadriacum": {
    "body": "Mars",
    "lat": -39.6672,
    "lon": 90.0,
    "lon_180": 90.0,
    "feature_type": null,
    "raw_name": "Mare Hadriacum"
  },
  "mare serpentis": {
    "body": "Mars",
    "lat": -29.7079,
    "lon": 40.0,
    "lon_180": 40.0,
    "feature_type": null,
    "raw_name": "Mare Serpentis"
  },
  "mare sirenum": {
    "body": "Mars",
    "lat": -29.7079,
    "lon": -155.0,
    "lon_180": -155.0,
    "feature_type": null,
    "raw_name": "Mare Sirenum"
  },
  "niliacus lacus": {
    "body": "Mars",
    "lat": 29.7079,
    "lon": -30.0,
    "lon_180": -30.0,
    "feature_type": null,
    "raw_name": "Niliacus Lacus"
  },
  "nilokeras": {
    "body": "Mars",
    "lat": 29.7079,
    "lon": -55.0,
    "lon_180": -55.0,
    "feature_type": null,
    "raw_name": "Nilokeras"
  },
  "nilosyrtis": {
    "body": "Mars",
    "lat": 41.6638,
    "lon": 70.0,
    "lon_180": 70.0,
    "feature_type": null,
    "raw_name": "Nilosyrtis"
  },
  "elorza": {
    "body": "Mars",
    "lat": -8.7592,
    "lon": -55.2086,
    "lon_180": -55.20859999999999,
    "feature_type": null,
    "raw_name": "Elorza"
  },
  "mare tyrrhenum": {
    "body": "Mars",
    "lat": -19.7836,
    "lon": 105.0,
    "lon_180": 105.0,
    "feature_type": null,
    "raw_name": "Mare Tyrrhenum"
  },
  "dulovo": {
    "body": "Mars",
    "lat": 3.6217,
    "lon": 84.5589,
    "lon_180": 84.5589,
    "feature_type": null,
    "raw_name": "Dulovo"
  },
  "margaritifer sinus": {
    "body": "Mars",
    "lat": -9.885,
    "lon": -25.0,
    "lon_180": -25.0,
    "feature_type": null,
    "raw_name": "Margaritifer Sinus"
  },
  "hashir": {
    "body": "Mars",
    "lat": 3.1912,
    "lon": 85.0136,
    "lon_180": 85.0136,
    "feature_type": null,
    "raw_name": "Hashir"
  },
  "grindavik": {
    "body": "Mars",
    "lat": 25.3993,
    "lon": -38.9898,
    "lon_180": -38.9898,
    "feature_type": null,
    "raw_name": "Grindavik"
  },
  "hargraves": {
    "body": "Mars",
    "lat": 20.7371,
    "lon": 75.7436,
    "lon_180": 75.74360000000001,
    "feature_type": null,
    "raw_name": "Hargraves"
  },
  "memnonia": {
    "body": "Mars",
    "lat": -19.7836,
    "lon": -150.0,
    "lon_180": -150.0,
    "feature_type": null,
    "raw_name": "Memnonia"
  },
  "iazu": {
    "body": "Mars",
    "lat": -2.7052,
    "lon": -5.1771,
    "lon_180": -5.177099999999996,
    "feature_type": null,
    "raw_name": "Iazu"
  },
  "moeris lacus": {
    "body": "Mars",
    "lat": 7.9073,
    "lon": 90.0,
    "lon_180": 90.0,
    "feature_type": null,
    "raw_name": "Moeris Lacus"
  },
  "jorn": {
    "body": "Mars",
    "lat": -27.19,
    "lon": 76.4254,
    "lon_180": 76.42539999999997,
    "feature_type": null,
    "raw_name": "Jörn"
  },
  "ulu": {
    "body": "Mars",
    "lat": 22.4903,
    "lon": 107.3185,
    "lon_180": 107.31849999999997,
    "feature_type": null,
    "raw_name": "Ulu"
  },
  "moab": {
    "body": "Mars",
    "lat": 19.7836,
    "lon": 10.0,
    "lon_180": 10.0,
    "feature_type": null,
    "raw_name": "Moab"
  },
  "farim": {
    "body": "Mars",
    "lat": -44.3127,
    "lon": 139.2814,
    "lon_180": 139.28139999999996,
    "feature_type": null,
    "raw_name": "Farim"
  },
  "arsia sulci": {
    "body": "Mars",
    "lat": -6.2853,
    "lon": -129.812,
    "lon_180": -129.812,
    "feature_type": null,
    "raw_name": "Arsia Sulci"
  },
  "ulya": {
    "body": "Mars",
    "lat": -17.9036,
    "lon": 111.6817,
    "lon_180": 111.68169999999998,
    "feature_type": null,
    "raw_name": "Ulya"
  },
  "umatac": {
    "body": "Mars",
    "lat": 42.5186,
    "lon": 137.2566,
    "lon_180": 137.2566,
    "feature_type": null,
    "raw_name": "Umatac"
  },
  "urk": {
    "body": "Mars",
    "lat": 23.1087,
    "lon": 111.421,
    "lon_180": 111.42099999999999,
    "feature_type": null,
    "raw_name": "Urk"
  },
  "utan": {
    "body": "Mars",
    "lat": 24.2395,
    "lon": 113.8055,
    "lon_180": 113.8055,
    "feature_type": null,
    "raw_name": "Utan"
  },
  "vaals": {
    "body": "Mars",
    "lat": -3.9644,
    "lon": -32.9737,
    "lon_180": -32.97370000000001,
    "feature_type": null,
    "raw_name": "Vaals"
  },
  "valga": {
    "body": "Mars",
    "lat": -44.3188,
    "lon": -36.6414,
    "lon_180": -36.641400000000004,
    "feature_type": null,
    "raw_name": "Valga"
  },
  "nectar": {
    "body": "Mars",
    "lat": -27.7205,
    "lon": -72.0,
    "lon_180": -72.0,
    "feature_type": null,
    "raw_name": "Nectar"
  },
  "valverde": {
    "body": "Mars",
    "lat": 20.0983,
    "lon": -55.762,
    "lon_180": -55.762,
    "feature_type": null,
    "raw_name": "Valverde"
  },
  "noachis": {
    "body": "Mars",
    "lat": -44.6618,
    "lon": 30.0,
    "lon_180": 30.0,
    "feature_type": null,
    "raw_name": "Noachis"
  },
  "vaux": {
    "body": "Mars",
    "lat": 17.9555,
    "lon": -32.7873,
    "lon_180": -32.787300000000016,
    "feature_type": null,
    "raw_name": "Vaux"
  },
  "nix olympica": {
    "body": "Mars",
    "lat": 19.7836,
    "lon": -130.0,
    "lon_180": -130.0,
    "feature_type": null,
    "raw_name": "Nix Olympica"
  },
  "verlaine": {
    "body": "Mars",
    "lat": -9.2228,
    "lon": 64.1155,
    "lon_180": 64.1155,
    "feature_type": null,
    "raw_name": "Verlaine"
  },
  "very": {
    "body": "Mars",
    "lat": -49.169,
    "lon": -177.0251,
    "lon_180": -177.0251,
    "feature_type": null,
    "raw_name": "Very"
  },
  "ogygis regio": {
    "body": "Mars",
    "lat": -44.6618,
    "lon": -65.0,
    "lon_180": -65.0,
    "feature_type": null,
    "raw_name": "Ogygis Regio"
  },
  "viana": {
    "body": "Mars",
    "lat": 19.1814,
    "lon": 104.811,
    "lon_180": 104.81100000000004,
    "feature_type": null,
    "raw_name": "Viana"
  },
  "olympia": {
    "body": "Mars",
    "lat": 79.8837,
    "lon": 160.0,
    "lon_180": 160.0,
    "feature_type": null,
    "raw_name": "Olympia"
  },
  "candor chasma": {
    "body": "Mars",
    "lat": -6.5328,
    "lon": -70.7793,
    "lon_180": -70.7793,
    "feature_type": null,
    "raw_name": "Candor Chasma"
  },
  "vik": {
    "body": "Mars",
    "lat": -36.0883,
    "lon": -63.9375,
    "lon_180": -63.9375,
    "feature_type": null,
    "raw_name": "Vik"
  },
  "vils": {
    "body": "Mars",
    "lat": 39.038,
    "lon": -11.6807,
    "lon_180": -11.680700000000002,
    "feature_type": null,
    "raw_name": "Vils"
  },
  "malea planum": {
    "body": "Mars",
    "lat": -65.8214,
    "lon": 62.9429,
    "lon_180": 62.94290000000001,
    "feature_type": null,
    "raw_name": "Malea Planum"
  },
  "vinogradov": {
    "body": "Mars",
    "lat": -19.8271,
    "lon": -37.743,
    "lon_180": -37.742999999999995,
    "feature_type": null,
    "raw_name": "Vinogradov"
  },
  "hadriaca patera": {
    "body": "Mars",
    "lat": -30.2002,
    "lon": 92.7923,
    "lon_180": 92.79230000000001,
    "feature_type": null,
    "raw_name": "Hadriaca Patera"
  },
  "phaethontis": {
    "body": "Mars",
    "lat": -49.6666,
    "lon": -155.0,
    "lon_180": -155.0,
    "feature_type": null,
    "raw_name": "Phaethontis"
  },
  "vinogradsky": {
    "body": "Mars",
    "lat": -56.1281,
    "lon": 143.849,
    "lon_180": 143.849,
    "feature_type": null,
    "raw_name": "Vinogradsky"
  },
  "ortygia": {
    "body": "Mars",
    "lat": 59.7062,
    "lon": 0.0,
    "lon_180": 0.0,
    "feature_type": null,
    "raw_name": "Ortygia"
  },
  "oxia palus": {
    "body": "Mars",
    "lat": 7.9073,
    "lon": -18.0,
    "lon_180": -18.0,
    "feature_type": null,
    "raw_name": "Oxia Palus"
  },
  "oxus": {
    "body": "Mars",
    "lat": 19.7836,
    "lon": -12.0,
    "lon_180": -12.0,
    "feature_type": null,
    "raw_name": "Oxus"
  },
  "virrat": {
    "body": "Mars",
    "lat": -30.7293,
    "lon": -102.876,
    "lon_180": -102.876,
    "feature_type": null,
    "raw_name": "Virrat"
  },
  "vishniac": {
    "body": "Mars",
    "lat": -76.5184,
    "lon": 84.1219,
    "lon_180": 84.12189999999998,
    "feature_type": null,
    "raw_name": "Vishniac"
  },
  "panchaia": {
    "body": "Mars",
    "lat": 59.7062,
    "lon": 160.0,
    "lon_180": 160.0,
    "feature_type": null,
    "raw_name": "Panchaia"
  },
  "pandorae fretum": {
    "body": "Mars",
    "lat": -24.7419,
    "lon": 44.0,
    "lon_180": 44.0,
    "feature_type": null,
    "raw_name": "Pandorae Fretum"
  },
  "vivero": {
    "body": "Mars",
    "lat": 48.971,
    "lon": 118.8322,
    "lon_180": 118.8322,
    "feature_type": null,
    "raw_name": "Vivero"
  },
  "voeykov": {
    "body": "Mars",
    "lat": -32.1139,
    "lon": -76.1387,
    "lon_180": -76.1387,
    "feature_type": null,
    "raw_name": "Voeykov"
  },
  "vogel": {
    "body": "Mars",
    "lat": -36.7738,
    "lon": -13.2832,
    "lon_180": -13.283199999999994,
    "feature_type": null,
    "raw_name": "Vogel"
  },
  "volgograd": {
    "body": "Mars",
    "lat": 48.097,
    "lon": 135.0276,
    "lon_180": 135.0276,
    "feature_type": null,
    "raw_name": "Volgograd"
  },
  "vol'sk": {
    "body": "Mars",
    "lat": 22.9996,
    "lon": -51.2401,
    "lon_180": -51.240099999999984,
    "feature_type": null,
    "raw_name": "Vol'sk"
  },
  "phoenicis lacus": {
    "body": "Mars",
    "lat": -11.8632,
    "lon": -110.0,
    "lon_180": -110.0,
    "feature_type": null,
    "raw_name": "Phoenicis Lacus"
  },
  "von karman": {
    "body": "Mars",
    "lat": -64.2677,
    "lon": -58.702,
    "lon_180": -58.702,
    "feature_type": null,
    "raw_name": "Von Kármán"
  },
  "phrixi regio": {
    "body": "Mars",
    "lat": -39.6672,
    "lon": -70.0,
    "lon_180": -70.0,
    "feature_type": null,
    "raw_name": "Phrixi Regio"
  },
  "voo": {
    "body": "Mars",
    "lat": -26.9406,
    "lon": -19.9927,
    "lon_180": -19.992700000000013,
    "feature_type": null,
    "raw_name": "Voo"
  },
  "voza": {
    "body": "Mars",
    "lat": 23.3425,
    "lon": -53.5281,
    "lon_180": -53.528099999999995,
    "feature_type": null,
    "raw_name": "Voza"
  },
  "promethei sinus": {
    "body": "Mars",
    "lat": -64.7399,
    "lon": 80.0,
    "lon_180": 80.0,
    "feature_type": null,
    "raw_name": "Promethei Sinus"
  },
  "vato": {
    "body": "Mars",
    "lat": -43.6086,
    "lon": -53.69,
    "lon_180": -53.69,
    "feature_type": null,
    "raw_name": "Vätö"
  },
  "wallops": {
    "body": "Mars",
    "lat": 46.5894,
    "lon": 132.72,
    "lon_180": 132.72000000000003,
    "feature_type": null,
    "raw_name": "Wallops"
  },
  "wabash": {
    "body": "Mars",
    "lat": 21.3596,
    "lon": -33.642,
    "lon_180": -33.641999999999996,
    "feature_type": null,
    "raw_name": "Wabash"
  },
  "propontis": {
    "body": "Mars",
    "lat": 44.6618,
    "lon": 175.0,
    "lon_180": 175.0,
    "feature_type": null,
    "raw_name": "Propontis"
  },
  "protei regio": {
    "body": "Mars",
    "lat": -22.7577,
    "lon": -50.0,
    "lon_180": -50.0,
    "feature_type": null,
    "raw_name": "Protei Regio"
  },
  "protonilus": {
    "body": "Mars",
    "lat": 41.6638,
    "lon": 45.0,
    "lon_180": 45.0,
    "feature_type": null,
    "raw_name": "Protonilus"
  },
  "wahoo": {
    "body": "Mars",
    "lat": 23.2334,
    "lon": -33.6816,
    "lon_180": -33.6816,
    "feature_type": null,
    "raw_name": "Wahoo"
  },
  "pyrrhae regio": {
    "body": "Mars",
    "lat": -14.8317,
    "lon": -38.0,
    "lon_180": -38.0,
    "feature_type": null,
    "raw_name": "Pyrrhae Regio"
  },
  "wajir": {
    "body": "Mars",
    "lat": -27.0244,
    "lon": 105.5447,
    "lon_180": 105.54470000000003,
    "feature_type": null,
    "raw_name": "Wajir"
  },
  "wallace": {
    "body": "Mars",
    "lat": -52.4812,
    "lon": 110.9028,
    "lon_180": 110.90280000000001,
    "feature_type": null,
    "raw_name": "Wallace"
  },
  "zea dorsa": {
    "body": "Mars",
    "lat": -48.8708,
    "lon": 80.5395,
    "lon_180": 80.53949999999998,
    "feature_type": null,
    "raw_name": "Zea Dorsa"
  },
  "wallula": {
    "body": "Mars",
    "lat": -9.9222,
    "lon": -54.3957,
    "lon_180": -54.395700000000005,
    "feature_type": null,
    "raw_name": "Wallula"
  },
  "sinus meridiani": {
    "body": "Mars",
    "lat": -4.9416,
    "lon": 0.0,
    "lon_180": 0.0,
    "feature_type": null,
    "raw_name": "Sinus Meridiani"
  },
  "sinus sabaeus": {
    "body": "Mars",
    "lat": -7.9073,
    "lon": 20.0,
    "lon_180": 20.0,
    "feature_type": null,
    "raw_name": "Sinus Sabaeus"
  },
  "warra": {
    "body": "Mars",
    "lat": 20.7461,
    "lon": -37.6323,
    "lon_180": -37.63229999999999,
    "feature_type": null,
    "raw_name": "Warra"
  },
  "wer": {
    "body": "Mars",
    "lat": 45.6742,
    "lon": -6.18829999999997,
    "lon_180": -6.18829999999997,
    "feature_type": null,
    "raw_name": "Wer"
  },
  "waspam": {
    "body": "Mars",
    "lat": 20.4537,
    "lon": -56.6272,
    "lon_180": -56.6272,
    "feature_type": null,
    "raw_name": "Waspam"
  },
  "wassamu": {
    "body": "Mars",
    "lat": 25.5741,
    "lon": -53.2055,
    "lon_180": -53.2055,
    "feature_type": null,
    "raw_name": "Wassamu"
  },
  "wau": {
    "body": "Mars",
    "lat": -44.8637,
    "lon": -42.6137,
    "lon_180": -42.613699999999994,
    "feature_type": null,
    "raw_name": "Wau"
  },
  "weert": {
    "body": "Mars",
    "lat": 19.7127,
    "lon": -51.6933,
    "lon_180": -51.693299999999994,
    "feature_type": null,
    "raw_name": "Weert"
  },
  "wegener": {
    "body": "Mars",
    "lat": -64.2995,
    "lon": -4.06599999999997,
    "lon_180": -4.065999999999974,
    "feature_type": null,
    "raw_name": "Wegener"
  },
  "weinbaum": {
    "body": "Mars",
    "lat": -65.5301,
    "lon": 114.5713,
    "lon_180": 114.57130000000001,
    "feature_type": null,
    "raw_name": "Weinbaum"
  },
  "wells": {
    "body": "Mars",
    "lat": -59.9353,
    "lon": 122.403,
    "lon_180": 122.40300000000002,
    "feature_type": null,
    "raw_name": "Wells"
  },
  "thoth": {
    "body": "Mars",
    "lat": 29.7079,
    "lon": 105.0,
    "lon_180": 105.0,
    "feature_type": null,
    "raw_name": "Thoth"
  },
  "wicklow": {
    "body": "Mars",
    "lat": -2.0141,
    "lon": -40.5303,
    "lon_180": -40.53030000000001,
    "feature_type": null,
    "raw_name": "Wicklow"
  },
  "windfall": {
    "body": "Mars",
    "lat": -2.0854,
    "lon": -43.3254,
    "lon_180": -43.3254,
    "feature_type": null,
    "raw_name": "Windfall"
  },
  "wien": {
    "body": "Mars",
    "lat": -10.572,
    "lon": 139.751,
    "lon_180": 139.75099999999998,
    "feature_type": null,
    "raw_name": "Wien"
  },
  "williams": {
    "body": "Mars",
    "lat": -18.3865,
    "lon": -164.1362,
    "lon_180": -164.1362,
    "feature_type": null,
    "raw_name": "Williams"
  },
  "wink": {
    "body": "Mars",
    "lat": -6.5145,
    "lon": -41.3424,
    "lon_180": -41.3424,
    "feature_type": null,
    "raw_name": "Wink"
  },
  "wirtz": {
    "body": "Mars",
    "lat": -48.2356,
    "lon": -25.8599,
    "lon_180": -25.85990000000001,
    "feature_type": null,
    "raw_name": "Wirtz"
  },
  "woolgar": {
    "body": "Mars",
    "lat": 34.6572,
    "lon": -85.4536,
    "lon_180": -85.4536,
    "feature_type": null,
    "raw_name": "Woolgar"
  },
  "wislicenus": {
    "body": "Mars",
    "lat": -18.1651,
    "lon": 11.3867,
    "lon_180": 11.38669999999999,
    "feature_type": null,
    "raw_name": "Wislicenus"
  },
  "syria": {
    "body": "Mars",
    "lat": -19.7836,
    "lon": -100.0,
    "lon_180": -100.0,
    "feature_type": null,
    "raw_name": "Syria"
  },
  "syrtis major": {
    "body": "Mars",
    "lat": 9.885,
    "lon": 70.0,
    "lon_180": 70.0,
    "feature_type": null,
    "raw_name": "Syrtis Major"
  },
  "woomera": {
    "body": "Mars",
    "lat": 48.0656,
    "lon": 132.6168,
    "lon_180": 132.6168,
    "feature_type": null,
    "raw_name": "Woomera"
  },
  "worcester": {
    "body": "Mars",
    "lat": 26.6126,
    "lon": -50.3747,
    "lon_180": -50.37469999999999,
    "feature_type": null,
    "raw_name": "Worcester"
  },
  "sinai": {
    "body": "Mars",
    "lat": -19.7836,
    "lon": -70.0,
    "lon_180": -70.0,
    "feature_type": null,
    "raw_name": "Sinai"
  },
  "xui": {
    "body": "Mars",
    "lat": 15.0868,
    "lon": 112.626,
    "lon_180": 112.62599999999998,
    "feature_type": null,
    "raw_name": "Xui"
  },
  "wright": {
    "body": "Mars",
    "lat": -58.5128,
    "lon": -151.0126,
    "lon_180": -151.0126,
    "feature_type": null,
    "raw_name": "Wright"
  },
  "wukari": {
    "body": "Mars",
    "lat": -31.8052,
    "lon": -102.7963,
    "lon_180": -102.7963,
    "feature_type": null,
    "raw_name": "Wukari"
  },
  "sithonius lacus": {
    "body": "Mars",
    "lat": 44.6618,
    "lon": 115.0,
    "lon_180": 115.0,
    "feature_type": null,
    "raw_name": "Sithonius Lacus"
  },
  "yakima": {
    "body": "Mars",
    "lat": 43.0339,
    "lon": -3.1524,
    "lon_180": -3.1524,
    "feature_type": null,
    "raw_name": "Yakima"
  },
  "solis lacus": {
    "body": "Mars",
    "lat": -27.7205,
    "lon": -90.0,
    "lon_180": -90.0,
    "feature_type": null,
    "raw_name": "Solis Lacus"
  },
  "yala": {
    "body": "Mars",
    "lat": 17.366,
    "lon": -38.5779,
    "lon_180": -38.5779,
    "feature_type": null,
    "raw_name": "Yala"
  },
  "yalata": {
    "body": "Mars",
    "lat": 21.8128,
    "lon": 106.1659,
    "lon_180": 106.16589999999997,
    "feature_type": null,
    "raw_name": "Yalata"
  },
  "yar": {
    "body": "Mars",
    "lat": 22.2687,
    "lon": -39.1475,
    "lon_180": -39.14750000000001,
    "feature_type": null,
    "raw_name": "Yar"
  },
  "styx": {
    "body": "Mars",
    "lat": 29.7079,
    "lon": 160.0,
    "lon_180": 160.0,
    "feature_type": null,
    "raw_name": "Styx"
  },
  "tara": {
    "body": "Mars",
    "lat": -44.0132,
    "lon": -52.8375,
    "lon_180": -52.837500000000006,
    "feature_type": null,
    "raw_name": "Tara"
  },
  "tarakan": {
    "body": "Mars",
    "lat": -41.206,
    "lon": -30.441,
    "lon_180": -30.441000000000003,
    "feature_type": null,
    "raw_name": "Tarakan"
  },
  "tarata": {
    "body": "Mars",
    "lat": -3.7802,
    "lon": -41.224,
    "lon_180": -41.22399999999999,
    "feature_type": null,
    "raw_name": "Tarata"
  },
  "tanais": {
    "body": "Mars",
    "lat": 49.6666,
    "lon": -70.0,
    "lon_180": -70.0,
    "feature_type": null,
    "raw_name": "Tanais"
  },
  "tarma": {
    "body": "Mars",
    "lat": 16.5381,
    "lon": 109.8549,
    "lon_180": 109.85489999999999,
    "feature_type": null,
    "raw_name": "Tarma"
  },
  "uchronia": {
    "body": "Mars",
    "lat": 69.7816,
    "lon": 100.0,
    "lon_180": 100.0,
    "feature_type": null,
    "raw_name": "Uchronia"
  },
  "thymiamata": {
    "body": "Mars",
    "lat": 9.885,
    "lon": -10.0,
    "lon_180": -10.0,
    "feature_type": null,
    "raw_name": "Thymiamata"
  },
  "tarsus": {
    "body": "Mars",
    "lat": 23.1178,
    "lon": -40.2627,
    "lon_180": -40.262699999999995,
    "feature_type": null,
    "raw_name": "Tarsus"
  },
  "taxco": {
    "body": "Mars",
    "lat": 20.666,
    "lon": -40.1325,
    "lon_180": -40.13249999999999,
    "feature_type": null,
    "raw_name": "Taxco"
  },
  "taza": {
    "body": "Mars",
    "lat": -43.5746,
    "lon": -45.296,
    "lon_180": -45.29599999999999,
    "feature_type": null,
    "raw_name": "Taza"
  },
  "tempe": {
    "body": "Mars",
    "lat": 39.6672,
    "lon": -70.0,
    "lon_180": -70.0,
    "feature_type": null,
    "raw_name": "Tempe"
  },
  "tharsis": {
    "body": "Mars",
    "lat": 0.0,
    "lon": -100.0,
    "lon_180": -100.0,
    "feature_type": null,
    "raw_name": "Tharsis"
  },
  "tecolote": {
    "body": "Mars",
    "lat": -24.5493,
    "lon": -106.8371,
    "lon_180": -106.8371,
    "feature_type": null,
    "raw_name": "Tecolote"
  },
  "trivium charontis": {
    "body": "Mars",
    "lat": 19.7836,
    "lon": 162.0,
    "lon_180": 162.0,
    "feature_type": null,
    "raw_name": "Trivium Charontis"
  },
  "teisserenc de bort": {
    "body": "Mars",
    "lat": 0.4335,
    "lon": 45.0726,
    "lon_180": 45.072599999999994,
    "feature_type": null,
    "raw_name": "Teisserenc de Bort"
  },
  "tithonius lacus": {
    "body": "Mars",
    "lat": -4.9416,
    "lon": -85.0,
    "lon_180": -85.0,
    "feature_type": null,
    "raw_name": "Tithonius Lacus"
  },
  "tejn": {
    "body": "Mars",
    "lat": 15.3879,
    "lon": 106.4219,
    "lon_180": 106.4219,
    "feature_type": null,
    "raw_name": "Tejn"
  },
  "tractus albus": {
    "body": "Mars",
    "lat": 29.7079,
    "lon": -80.0,
    "lon_180": -80.0,
    "feature_type": null,
    "raw_name": "Tractus Albus"
  },
  "trinacria": {
    "body": "Mars",
    "lat": -24.7419,
    "lon": 92.0,
    "lon_180": 92.0,
    "feature_type": null,
    "raw_name": "Trinacria"
  },
  "telz": {
    "body": "Mars",
    "lat": 21.1595,
    "lon": 111.1197,
    "lon_180": 111.11969999999997,
    "feature_type": null,
    "raw_name": "Telz"
  },
  "tem'": {
    "body": "Mars",
    "lat": 41.9074,
    "lon": -9.45359999999999,
    "lon_180": -9.453599999999994,
    "feature_type": null,
    "raw_name": "Tem'"
  },
  "tepko": {
    "body": "Mars",
    "lat": 15.2091,
    "lon": 103.5109,
    "lon_180": 103.51089999999999,
    "feature_type": null,
    "raw_name": "Tepko"
  },
  "terby": {
    "body": "Mars",
    "lat": -27.9614,
    "lon": 74.1408,
    "lon_180": 74.14080000000001,
    "feature_type": null,
    "raw_name": "Terby"
  },
  "thermia": {
    "body": "Mars",
    "lat": 19.6673,
    "lon": 109.1739,
    "lon_180": 109.1739,
    "feature_type": null,
    "raw_name": "Thermia"
  },
  "umbra": {
    "body": "Mars",
    "lat": 49.6666,
    "lon": 70.0,
    "lon_180": 70.0,
    "feature_type": null,
    "raw_name": "Umbra"
  },
  "thira": {
    "body": "Mars",
    "lat": -14.4742,
    "lon": 175.9773,
    "lon_180": 175.9773,
    "feature_type": null,
    "raw_name": "Thira"
  },
  "thom": {
    "body": "Mars",
    "lat": -41.11,
    "lon": 92.3491,
    "lon_180": 92.34910000000002,
    "feature_type": null,
    "raw_name": "Thom"
  },
  "utopia": {
    "body": "Mars",
    "lat": 49.6666,
    "lon": 110.0,
    "lon_180": 110.0,
    "feature_type": null,
    "raw_name": "Utopia"
  },
  "thule": {
    "body": "Mars",
    "lat": -23.3724,
    "lon": -25.724,
    "lon_180": -25.72399999999999,
    "feature_type": null,
    "raw_name": "Thule"
  },
  "tibrikot": {
    "body": "Mars",
    "lat": 12.558,
    "lon": -54.8708,
    "lon_180": -54.8708,
    "feature_type": null,
    "raw_name": "Tibrikot"
  },
  "yaonis regio": {
    "body": "Mars",
    "lat": -39.6672,
    "lon": 40.0,
    "lon_180": 40.0,
    "feature_type": null,
    "raw_name": "Yaonis Regio"
  },
  "tignish": {
    "body": "Mars",
    "lat": -30.7358,
    "lon": 87.0406,
    "lon_180": 87.04059999999998,
    "feature_type": null,
    "raw_name": "Tignish"
  },
  "tikhonravov": {
    "body": "Mars",
    "lat": 13.2777,
    "lon": 35.9266,
    "lon_180": 35.92660000000001,
    "feature_type": null,
    "raw_name": "Tikhonravov"
  },
  "tikhov": {
    "body": "Mars",
    "lat": -50.6817,
    "lon": 105.797,
    "lon_180": 105.79700000000003,
    "feature_type": null,
    "raw_name": "Tikhov"
  },
  "vulcani pelagus": {
    "body": "Mars",
    "lat": -34.6828,
    "lon": -15.0,
    "lon_180": -15.0,
    "feature_type": null,
    "raw_name": "Vulcani Pelagus"
  },
  "tile": {
    "body": "Mars",
    "lat": 17.7262,
    "lon": -28.6215,
    "lon_180": -28.621499999999997,
    "feature_type": null,
    "raw_name": "Tile"
  },
  "tokko": {
    "body": "Mars",
    "lat": 22.5469,
    "lon": 109.5187,
    "lon_180": 109.51869999999997,
    "feature_type": null,
    "raw_name": "Tokko"
  },
  "timaru": {
    "body": "Mars",
    "lat": -25.2675,
    "lon": -22.337,
    "lon_180": -22.33699999999999,
    "feature_type": null,
    "raw_name": "Timaru"
  },
  "timbuktu": {
    "body": "Mars",
    "lat": -5.5604,
    "lon": -37.524,
    "lon_180": -37.524,
    "feature_type": null,
    "raw_name": "Timbuktu"
  },
  "timoshenko": {
    "body": "Mars",
    "lat": 41.7629,
    "lon": -64.0026,
    "lon_180": -64.0026,
    "feature_type": null,
    "raw_name": "Timoshenko"
  },
  "tolon": {
    "body": "Mars",
    "lat": 18.225,
    "lon": 104.9785,
    "lon_180": 104.9785,
    "feature_type": null,
    "raw_name": "Tolon"
  },
  "tiwi": {
    "body": "Mars",
    "lat": -27.5629,
    "lon": -24.7616,
    "lon_180": -24.761599999999987,
    "feature_type": null,
    "raw_name": "Tiwi"
  },
  "xanthe": {
    "body": "Mars",
    "lat": 9.885,
    "lon": -50.0,
    "lon_180": -50.0,
    "feature_type": null,
    "raw_name": "Xanthe"
  },
  "tokma": {
    "body": "Mars",
    "lat": 21.3106,
    "lon": 108.5661,
    "lon_180": 108.5661,
    "feature_type": null,
    "raw_name": "Tokma"
  },
  "tooting": {
    "body": "Mars",
    "lat": 23.207,
    "lon": -152.2387,
    "lon_180": -152.2387,
    "feature_type": null,
    "raw_name": "Tooting"
  },
  "torbay": {
    "body": "Mars",
    "lat": 17.8738,
    "lon": 114.0809,
    "lon_180": 114.08089999999999,
    "feature_type": null,
    "raw_name": "Torbay"
  },
  "torso": {
    "body": "Mars",
    "lat": -44.2856,
    "lon": -51.1798,
    "lon_180": -51.1798,
    "feature_type": null,
    "raw_name": "Torsö"
  },
  "zephyria": {
    "body": "Mars",
    "lat": 0.0,
    "lon": 165.0,
    "lon_180": 165.0,
    "feature_type": null,
    "raw_name": "Zephyria"
  },
  "trud": {
    "body": "Mars",
    "lat": 17.6819,
    "lon": -31.5909,
    "lon_180": -31.590900000000005,
    "feature_type": null,
    "raw_name": "Trud"
  },
  "torup": {
    "body": "Mars",
    "lat": -27.8894,
    "lon": 97.8089,
    "lon_180": 97.8089,
    "feature_type": null,
    "raw_name": "Torup"
  },
  "trinidad": {
    "body": "Mars",
    "lat": -23.3819,
    "lon": 109.0543,
    "lon_180": 109.05430000000001,
    "feature_type": null,
    "raw_name": "Trinidad"
  },
  "troika": {
    "body": "Mars",
    "lat": 16.8325,
    "lon": 105.1399,
    "lon_180": 105.13990000000001,
    "feature_type": null,
    "raw_name": "Troika"
  },
  "promethei mons": {
    "body": "Mars",
    "lat": -70.573,
    "lon": 87.4433,
    "lon_180": 87.44330000000002,
    "feature_type": null,
    "raw_name": "Promethei Mons"
  },
  "trouvelot": {
    "body": "Mars",
    "lat": 16.0946,
    "lon": -12.9814,
    "lon_180": -12.981400000000008,
    "feature_type": null,
    "raw_name": "Trouvelot"
  },
  "troy": {
    "body": "Mars",
    "lat": 23.1699,
    "lon": -52.6151,
    "lon_180": -52.6151,
    "feature_type": null,
    "raw_name": "Troy"
  },
  "trumpler": {
    "body": "Mars",
    "lat": -61.4342,
    "lon": -150.7117,
    "lon_180": -150.7117,
    "feature_type": null,
    "raw_name": "Trumpler"
  },
  "aspen": {
    "body": "Mars",
    "lat": -21.3855,
    "lon": -23.149,
    "lon_180": -23.149,
    "feature_type": null,
    "raw_name": "Aspen"
  },
  "tsau": {
    "body": "Mars",
    "lat": 49.4924,
    "lon": 121.0555,
    "lon_180": 121.0555,
    "feature_type": null,
    "raw_name": "Tsau"
  },
  "tsukuba": {
    "body": "Mars",
    "lat": 48.5827,
    "lon": 133.9976,
    "lon_180": 133.99760000000003,
    "feature_type": null,
    "raw_name": "Tsukuba"
  },
  "tuapi": {
    "body": "Mars",
    "lat": 16.9827,
    "lon": 104.338,
    "lon_180": 104.33799999999997,
    "feature_type": null,
    "raw_name": "Tuapi"
  },
  "tumul": {
    "body": "Mars",
    "lat": 14.7073,
    "lon": 104.6106,
    "lon_180": 104.61059999999998,
    "feature_type": null,
    "raw_name": "Tumul"
  },
  "tugaske": {
    "body": "Mars",
    "lat": -31.7824,
    "lon": -101.1122,
    "lon_180": -101.1122,
    "feature_type": null,
    "raw_name": "Tugaske"
  },
  "aveiro": {
    "body": "Mars",
    "lat": 21.2812,
    "lon": -78.971,
    "lon_180": -78.971,
    "feature_type": null,
    "raw_name": "Aveiro"
  },
  "angu": {
    "body": "Mars",
    "lat": 20.0126,
    "lon": 105.6368,
    "lon_180": 105.6368,
    "feature_type": null,
    "raw_name": "Angu"
  },
  "bazas": {
    "body": "Mars",
    "lat": -27.7768,
    "lon": 93.3808,
    "lon_180": 93.38080000000002,
    "feature_type": null,
    "raw_name": "Bazas"
  },
  "albany": {
    "body": "Mars",
    "lat": 22.9619,
    "lon": -49.0196,
    "lon_180": -49.0196,
    "feature_type": null,
    "raw_name": "Albany"
  },
  "tungla": {
    "body": "Mars",
    "lat": -40.7678,
    "lon": 89.6398,
    "lon_180": 89.63979999999998,
    "feature_type": null,
    "raw_name": "Tungla"
  },
  "bordeaux": {
    "body": "Mars",
    "lat": 23.1327,
    "lon": -48.8922,
    "lon_180": -48.8922,
    "feature_type": null,
    "raw_name": "Bordeaux"
  },
  "tura": {
    "body": "Mars",
    "lat": -26.6325,
    "lon": -21.9752,
    "lon_180": -21.9752,
    "feature_type": null,
    "raw_name": "Tura"
  },
  "aban": {
    "body": "Mars",
    "lat": 15.9069,
    "lon": 111.1013,
    "lon_180": 111.10129999999998,
    "feature_type": null,
    "raw_name": "Aban"
  },
  "achar": {
    "body": "Mars",
    "lat": 45.4309,
    "lon": 123.1615,
    "lon_180": 123.16149999999999,
    "feature_type": null,
    "raw_name": "Achar"
  },
  "adams": {
    "body": "Mars",
    "lat": 30.9137,
    "lon": 163.1,
    "lon_180": 163.10000000000002,
    "feature_type": null,
    "raw_name": "Adams"
  },
  "agassiz": {
    "body": "Mars",
    "lat": -69.8826,
    "lon": -88.8855,
    "lon_180": -88.8855,
    "feature_type": null,
    "raw_name": "Agassiz"
  },
  "becquerel": {
    "body": "Mars",
    "lat": 21.8922,
    "lon": -7.94299999999998,
    "lon_180": -7.942999999999984,
    "feature_type": null,
    "raw_name": "Becquerel"
  },
  "ajon": {
    "body": "Mars",
    "lat": 16.4913,
    "lon": 103.1429,
    "lon_180": 103.1429,
    "feature_type": null,
    "raw_name": "Ajon"
  },
  "aki": {
    "body": "Mars",
    "lat": -35.4643,
    "lon": -60.2442,
    "lon_180": -60.244200000000006,
    "feature_type": null,
    "raw_name": "Aki"
  },
  "aktaj": {
    "body": "Mars",
    "lat": 20.4112,
    "lon": -46.4894,
    "lon_180": -46.48939999999999,
    "feature_type": null,
    "raw_name": "Aktaj"
  },
  "albi": {
    "body": "Mars",
    "lat": -41.4747,
    "lon": -35.0076,
    "lon_180": -35.0076,
    "feature_type": null,
    "raw_name": "Albi"
  },
  "alexey tolstoy": {
    "body": "Mars",
    "lat": -47.4389,
    "lon": 125.3387,
    "lon_180": 125.33870000000002,
    "feature_type": null,
    "raw_name": "Alexey Tolstoy"
  },
  "alga": {
    "body": "Mars",
    "lat": -24.3414,
    "lon": -26.677,
    "lon_180": -26.676999999999992,
    "feature_type": null,
    "raw_name": "Alga"
  },
  "amsterdam": {
    "body": "Mars",
    "lat": 23.0029,
    "lon": -47.0029,
    "lon_180": -47.00290000000001,
    "feature_type": null,
    "raw_name": "Amsterdam"
  },
  "aniak": {
    "body": "Mars",
    "lat": -31.8378,
    "lon": -69.5628,
    "lon_180": -69.5628,
    "feature_type": null,
    "raw_name": "Aniak"
  },
  "antoniadi": {
    "body": "Mars",
    "lat": 21.3819,
    "lon": 60.8311,
    "lon_180": 60.83109999999999,
    "feature_type": null,
    "raw_name": "Antoniadi"
  },
  "apia": {
    "body": "Mars",
    "lat": -37.283,
    "lon": 89.015,
    "lon_180": 89.01499999999999,
    "feature_type": null,
    "raw_name": "Apia"
  },
  "apt": {
    "body": "Mars",
    "lat": 39.8804,
    "lon": -9.4699,
    "lon_180": -9.469899999999996,
    "feature_type": null,
    "raw_name": "Apt"
  },
  "labeatis mensa": {
    "body": "Mars",
    "lat": 25.5042,
    "lon": -74.4662,
    "lon_180": -74.4662,
    "feature_type": null,
    "raw_name": "Labeatis Mensa"
  },
  "arago": {
    "body": "Mars",
    "lat": 10.2212,
    "lon": 29.9262,
    "lon_180": 29.926199999999994,
    "feature_type": null,
    "raw_name": "Arago"
  },
  "arandas": {
    "body": "Mars",
    "lat": 42.4061,
    "lon": -15.0272,
    "lon_180": -15.027199999999993,
    "feature_type": null,
    "raw_name": "Arandas"
  },
  "argas": {
    "body": "Mars",
    "lat": 23.3286,
    "lon": -50.1684,
    "lon_180": -50.16839999999999,
    "feature_type": null,
    "raw_name": "Argas"
  },
  "arica": {
    "body": "Mars",
    "lat": -23.8006,
    "lon": 110.238,
    "lon_180": 110.238,
    "feature_type": null,
    "raw_name": "Arica"
  },
  "arkhangelsky": {
    "body": "Mars",
    "lat": -41.0876,
    "lon": -24.788,
    "lon_180": -24.78800000000001,
    "feature_type": null,
    "raw_name": "Arkhangelsky"
  },
  "arrhenius": {
    "body": "Mars",
    "lat": -40.0418,
    "lon": 122.7059,
    "lon_180": 122.70589999999999,
    "feature_type": null,
    "raw_name": "Arrhenius"
  },
  "arta": {
    "body": "Mars",
    "lat": 21.383,
    "lon": -54.2866,
    "lon_180": -54.28659999999999,
    "feature_type": null,
    "raw_name": "Arta"
  },
  "ayacucho": {
    "body": "Mars",
    "lat": 38.1819,
    "lon": -92.0258,
    "lon_180": -92.0258,
    "feature_type": null,
    "raw_name": "Ayacucho"
  },
  "ayr": {
    "body": "Mars",
    "lat": -38.9832,
    "lon": 91.5814,
    "lon_180": 91.58140000000003,
    "feature_type": null,
    "raw_name": "Ayr"
  },
  "azul": {
    "body": "Mars",
    "lat": -42.0711,
    "lon": -42.5146,
    "lon_180": -42.5146,
    "feature_type": null,
    "raw_name": "Azul"
  },
  "azusa": {
    "body": "Mars",
    "lat": -5.4811,
    "lon": -40.3216,
    "lon_180": -40.32159999999999,
    "feature_type": null,
    "raw_name": "Azusa"
  },
  "babakin": {
    "body": "Mars",
    "lat": -36.0048,
    "lon": -71.445,
    "lon_180": -71.445,
    "feature_type": null,
    "raw_name": "Babakin"
  },
  "bacht": {
    "body": "Mars",
    "lat": 18.6561,
    "lon": 102.698,
    "lon_180": 102.69799999999998,
    "feature_type": null,
    "raw_name": "Bacht"
  },
  "bacolor": {
    "body": "Mars",
    "lat": 32.9937,
    "lon": 118.5996,
    "lon_180": 118.59960000000001,
    "feature_type": null,
    "raw_name": "Bacolor"
  },
  "bada": {
    "body": "Mars",
    "lat": 20.3484,
    "lon": -50.6892,
    "lon_180": -50.6892,
    "feature_type": null,
    "raw_name": "Bada"
  },
  "bahn": {
    "body": "Mars",
    "lat": -3.4963,
    "lon": -43.3186,
    "lon_180": -43.3186,
    "feature_type": null,
    "raw_name": "Bahn"
  },
  "bak": {
    "body": "Mars",
    "lat": 18.0493,
    "lon": 103.7849,
    "lon_180": 103.7849,
    "feature_type": null,
    "raw_name": "Bak"
  },
  "bakhuysen": {
    "body": "Mars",
    "lat": -22.9729,
    "lon": 15.7278,
    "lon_180": 15.727800000000002,
    "feature_type": null,
    "raw_name": "Bakhuysen"
  },
  "balboa": {
    "body": "Mars",
    "lat": -3.8215,
    "lon": -33.8771,
    "lon_180": -33.877099999999984,
    "feature_type": null,
    "raw_name": "Balboa"
  },
  "baldet": {
    "body": "Mars",
    "lat": 22.762,
    "lon": 65.4819,
    "lon_180": 65.4819,
    "feature_type": null,
    "raw_name": "Baldet"
  },
  "balta": {
    "body": "Mars",
    "lat": -23.8182,
    "lon": -26.5497,
    "lon_180": -26.5497,
    "feature_type": null,
    "raw_name": "Balta"
  },
  "baltisk": {
    "body": "Mars",
    "lat": -42.2678,
    "lon": -54.6597,
    "lon_180": -54.6597,
    "feature_type": null,
    "raw_name": "Baltisk"
  },
  "balvicar": {
    "body": "Mars",
    "lat": 16.2024,
    "lon": -53.2385,
    "lon_180": -53.2385,
    "feature_type": null,
    "raw_name": "Balvicar"
  },
  "bamba": {
    "body": "Mars",
    "lat": -3.3625,
    "lon": -41.5887,
    "lon_180": -41.58870000000002,
    "feature_type": null,
    "raw_name": "Bamba"
  },
  "bamberg": {
    "body": "Mars",
    "lat": 39.7072,
    "lon": -3.09989999999999,
    "lon_180": -3.099899999999991,
    "feature_type": null,
    "raw_name": "Bamberg"
  },
  "banff": {
    "body": "Mars",
    "lat": 17.5097,
    "lon": -30.7077,
    "lon_180": -30.70769999999999,
    "feature_type": null,
    "raw_name": "Banff"
  },
  "banh": {
    "body": "Mars",
    "lat": 19.417,
    "lon": -55.4973,
    "lon_180": -55.497299999999996,
    "feature_type": null,
    "raw_name": "Banh"
  },
  "bar": {
    "body": "Mars",
    "lat": -25.2468,
    "lon": -19.4962,
    "lon_180": -19.496199999999988,
    "feature_type": null,
    "raw_name": "Bar"
  },
  "barabashov": {
    "body": "Mars",
    "lat": 47.3252,
    "lon": -68.7515,
    "lon_180": -68.7515,
    "feature_type": null,
    "raw_name": "Barabashov"
  },
  "barnard": {
    "body": "Mars",
    "lat": -61.0629,
    "lon": 61.5894,
    "lon_180": 61.58940000000001,
    "feature_type": null,
    "raw_name": "Barnard"
  },
  "baro": {
    "body": "Mars",
    "lat": -24.803,
    "lon": 110.6981,
    "lon_180": 110.69810000000001,
    "feature_type": null,
    "raw_name": "Baro"
  },
  "barsukov": {
    "body": "Mars",
    "lat": 7.9727,
    "lon": -29.0158,
    "lon_180": -29.015800000000013,
    "feature_type": null,
    "raw_name": "Barsukov"
  },
  "basin": {
    "body": "Mars",
    "lat": 17.8175,
    "lon": 106.9998,
    "lon_180": 106.9998,
    "feature_type": null,
    "raw_name": "Basin"
  },
  "batoka": {
    "body": "Mars",
    "lat": -7.5529,
    "lon": -36.6528,
    "lon_180": -36.65280000000001,
    "feature_type": null,
    "raw_name": "Batoka"
  },
  "batos": {
    "body": "Mars",
    "lat": 21.5038,
    "lon": -29.4993,
    "lon_180": -29.499300000000005,
    "feature_type": null,
    "raw_name": "Batoş"
  },
  "baykonyr": {
    "body": "Mars",
    "lat": 46.4099,
    "lon": 132.6789,
    "lon_180": 132.6789,
    "feature_type": null,
    "raw_name": "Baykonyr"
  },
  "beer": {
    "body": "Mars",
    "lat": -14.4723,
    "lon": -8.16899999999998,
    "lon_180": -8.168999999999983,
    "feature_type": null,
    "raw_name": "Beer"
  },
  "canaveral": {
    "body": "Mars",
    "lat": 46.8296,
    "lon": 135.8307,
    "lon_180": 135.83069999999998,
    "feature_type": null,
    "raw_name": "Canaveral"
  },
  "beltra": {
    "body": "Mars",
    "lat": 18.0114,
    "lon": 102.4041,
    "lon_180": 102.40409999999997,
    "feature_type": null,
    "raw_name": "Beltra"
  },
  "belz": {
    "body": "Mars",
    "lat": 21.5742,
    "lon": -43.228,
    "lon_180": -43.22800000000001,
    "feature_type": null,
    "raw_name": "Belz"
  },
  "bend": {
    "body": "Mars",
    "lat": -22.4018,
    "lon": -27.7351,
    "lon_180": -27.73509999999999,
    "feature_type": null,
    "raw_name": "Bend"
  },
  "bentham": {
    "body": "Mars",
    "lat": -55.7793,
    "lon": -40.5529,
    "lon_180": -40.552899999999994,
    "feature_type": null,
    "raw_name": "Bentham"
  },
  "bentong": {
    "body": "Mars",
    "lat": -22.3083,
    "lon": -19.0432,
    "lon_180": -19.043200000000013,
    "feature_type": null,
    "raw_name": "Bentong"
  },
  "bernard": {
    "body": "Mars",
    "lat": -23.2439,
    "lon": -154.2053,
    "lon_180": -154.2053,
    "feature_type": null,
    "raw_name": "Bernard"
  },
  "berseba": {
    "body": "Mars",
    "lat": -4.3959,
    "lon": -37.602,
    "lon_180": -37.602000000000004,
    "feature_type": null,
    "raw_name": "Berseba"
  },
  "bhor": {
    "body": "Mars",
    "lat": 41.7474,
    "lon": 134.5281,
    "lon_180": 134.5281,
    "feature_type": null,
    "raw_name": "Bhor"
  },
  "bianchini": {
    "body": "Mars",
    "lat": -63.8528,
    "lon": -95.29,
    "lon_180": -95.29,
    "feature_type": null,
    "raw_name": "Bianchini"
  },
  "bigbee": {
    "body": "Mars",
    "lat": -24.7779,
    "lon": -34.7507,
    "lon_180": -34.750699999999995,
    "feature_type": null,
    "raw_name": "Bigbee"
  },
  "bira": {
    "body": "Mars",
    "lat": 25.097,
    "lon": -45.5409,
    "lon_180": -45.54089999999999,
    "feature_type": null,
    "raw_name": "Bira"
  },
  "bise": {
    "body": "Mars",
    "lat": 20.2244,
    "lon": -56.832,
    "lon_180": -56.831999999999994,
    "feature_type": null,
    "raw_name": "Bise"
  },
  "bison": {
    "body": "Mars",
    "lat": -26.305,
    "lon": -29.1481,
    "lon_180": -29.1481,
    "feature_type": null,
    "raw_name": "Bison"
  },
  "bjerknes": {
    "body": "Mars",
    "lat": -43.0126,
    "lon": 171.4831,
    "lon_180": 171.48310000000004,
    "feature_type": null,
    "raw_name": "Bjerknes"
  },
  "bland": {
    "body": "Mars",
    "lat": 18.2952,
    "lon": 108.7559,
    "lon_180": 108.7559,
    "feature_type": null,
    "raw_name": "Bland"
  },
  "bled": {
    "body": "Mars",
    "lat": 21.5847,
    "lon": -31.4564,
    "lon_180": -31.456400000000002,
    "feature_type": null,
    "raw_name": "Bled"
  },
  "blitta": {
    "body": "Mars",
    "lat": -25.8952,
    "lon": -20.9585,
    "lon_180": -20.958500000000015,
    "feature_type": null,
    "raw_name": "Blitta"
  },
  "blois": {
    "body": "Mars",
    "lat": 23.5952,
    "lon": -55.8489,
    "lon_180": -55.8489,
    "feature_type": null,
    "raw_name": "Blois"
  },
  "bluff": {
    "body": "Mars",
    "lat": 23.466,
    "lon": 110.0296,
    "lon_180": 110.02960000000002,
    "feature_type": null,
    "raw_name": "Bluff"
  },
  "boeddicker": {
    "body": "Mars",
    "lat": -14.8216,
    "lon": 162.4873,
    "lon_180": 162.4873,
    "feature_type": null,
    "raw_name": "Boeddicker"
  },
  "bogra": {
    "body": "Mars",
    "lat": -24.1642,
    "lon": -28.8046,
    "lon_180": -28.804599999999994,
    "feature_type": null,
    "raw_name": "Bogra"
  },
  "bok": {
    "body": "Mars",
    "lat": 20.5796,
    "lon": -31.6034,
    "lon_180": -31.603399999999993,
    "feature_type": null,
    "raw_name": "Bok"
  },
  "bole": {
    "body": "Mars",
    "lat": 25.3544,
    "lon": -53.9946,
    "lon_180": -53.99459999999999,
    "feature_type": null,
    "raw_name": "Bole"
  },
  "bombala": {
    "body": "Mars",
    "lat": -27.6021,
    "lon": 106.134,
    "lon_180": 106.13400000000001,
    "feature_type": null,
    "raw_name": "Bombala"
  },
  "bor": {
    "body": "Mars",
    "lat": 18.1682,
    "lon": -33.6825,
    "lon_180": -33.682500000000005,
    "feature_type": null,
    "raw_name": "Bor"
  },
  "bond": {
    "body": "Mars",
    "lat": -32.7946,
    "lon": -35.9394,
    "lon_180": -35.939400000000006,
    "feature_type": null,
    "raw_name": "Bond"
  },
  "bonestell": {
    "body": "Mars",
    "lat": 41.9979,
    "lon": -30.3929,
    "lon_180": -30.392899999999997,
    "feature_type": null,
    "raw_name": "Bonestell"
  },
  "boru": {
    "body": "Mars",
    "lat": -24.3431,
    "lon": -27.8705,
    "lon_180": -27.870499999999993,
    "feature_type": null,
    "raw_name": "Boru"
  },
  "coprates chasma": {
    "body": "Mars",
    "lat": -13.3654,
    "lon": -60.7385,
    "lon_180": -60.7385,
    "feature_type": null,
    "raw_name": "Coprates Chasma"
  },
  "turbi": {
    "body": "Mars",
    "lat": -40.6221,
    "lon": -51.4543,
    "lon_180": -51.45429999999999,
    "feature_type": null,
    "raw_name": "Turbi"
  },
  "bouguer": {
    "body": "Mars",
    "lat": -18.4611,
    "lon": 27.2666,
    "lon_180": 27.26660000000001,
    "feature_type": null,
    "raw_name": "Bouguer"
  },
  "boulia": {
    "body": "Mars",
    "lat": -22.8855,
    "lon": 111.3189,
    "lon_180": 111.31889999999999,
    "feature_type": null,
    "raw_name": "Boulia"
  },
  "bristol": {
    "body": "Mars",
    "lat": 22.0904,
    "lon": -46.9321,
    "lon_180": -46.93209999999999,
    "feature_type": null,
    "raw_name": "Bristol"
  },
  "bozkir": {
    "body": "Mars",
    "lat": -44.1384,
    "lon": -32.1791,
    "lon_180": -32.179100000000005,
    "feature_type": null,
    "raw_name": "Bozkir"
  },
  "broach": {
    "body": "Mars",
    "lat": 23.514,
    "lon": -56.8945,
    "lon_180": -56.894499999999994,
    "feature_type": null,
    "raw_name": "Broach"
  },
  "brashear": {
    "body": "Mars",
    "lat": -53.8149,
    "lon": -119.028,
    "lon_180": -119.028,
    "feature_type": null,
    "raw_name": "Brashear"
  },
  "bremerhaven": {
    "body": "Mars",
    "lat": 23.698,
    "lon": -48.642,
    "lon_180": -48.641999999999996,
    "feature_type": null,
    "raw_name": "Bremerhaven"
  },
  "briault": {
    "body": "Mars",
    "lat": -9.9784,
    "lon": 89.6824,
    "lon_180": 89.68240000000003,
    "feature_type": null,
    "raw_name": "Briault"
  },
  "bridgetown": {
    "body": "Mars",
    "lat": 21.8959,
    "lon": -47.0786,
    "lon_180": -47.078599999999994,
    "feature_type": null,
    "raw_name": "Bridgetown"
  },
  "bronkhorst": {
    "body": "Mars",
    "lat": -10.7036,
    "lon": -55.2059,
    "lon_180": -55.2059,
    "feature_type": null,
    "raw_name": "Bronkhorst"
  },
  "brush": {
    "body": "Mars",
    "lat": 21.7001,
    "lon": 111.3384,
    "lon_180": 111.33839999999998,
    "feature_type": null,
    "raw_name": "Brush"
  },
  "bulhar": {
    "body": "Mars",
    "lat": 50.358,
    "lon": 134.5187,
    "lon_180": 134.51869999999997,
    "feature_type": null,
    "raw_name": "Bulhar"
  },
  "bunge": {
    "body": "Mars",
    "lat": -33.8171,
    "lon": -48.592,
    "lon_180": -48.591999999999985,
    "feature_type": null,
    "raw_name": "Bunge"
  },
  "buta": {
    "body": "Mars",
    "lat": -23.2487,
    "lon": -32.4119,
    "lon_180": -32.4119,
    "feature_type": null,
    "raw_name": "Buta"
  },
  "burroughs": {
    "body": "Mars",
    "lat": -72.2898,
    "lon": 117.0992,
    "lon_180": 117.0992,
    "feature_type": null,
    "raw_name": "Burroughs"
  },
  "burton": {
    "body": "Mars",
    "lat": -13.8805,
    "lon": -156.331,
    "lon_180": -156.331,
    "feature_type": null,
    "raw_name": "Burton"
  },
  "butte": {
    "body": "Mars",
    "lat": -5.0827,
    "lon": -38.9142,
    "lon_180": -38.914199999999994,
    "feature_type": null,
    "raw_name": "Butte"
  },
  "byrd": {
    "body": "Mars",
    "lat": -65.2216,
    "lon": 127.83,
    "lon_180": 127.82999999999998,
    "feature_type": null,
    "raw_name": "Byrd"
  },
  "byske": {
    "body": "Mars",
    "lat": -4.9731,
    "lon": -33.9516,
    "lon_180": -33.951599999999985,
    "feature_type": null,
    "raw_name": "Byske"
  },
  "cairns": {
    "body": "Mars",
    "lat": 23.5647,
    "lon": -47.4573,
    "lon_180": -47.457300000000004,
    "feature_type": null,
    "raw_name": "Cairns"
  },
  "calahorra": {
    "body": "Mars",
    "lat": 26.4568,
    "lon": -38.651,
    "lon_180": -38.65100000000001,
    "feature_type": null,
    "raw_name": "Calahorra"
  },
  "calamar": {
    "body": "Mars",
    "lat": 18.2749,
    "lon": -54.8732,
    "lon_180": -54.8732,
    "feature_type": null,
    "raw_name": "Calamar"
  },
  "calbe": {
    "body": "Mars",
    "lat": -25.1365,
    "lon": -28.8729,
    "lon_180": -28.872900000000016,
    "feature_type": null,
    "raw_name": "Calbe"
  },
  "camargo": {
    "body": "Mars",
    "lat": 17.6993,
    "lon": 109.6418,
    "lon_180": 109.64179999999999,
    "feature_type": null,
    "raw_name": "Camargo"
  },
  "camiling": {
    "body": "Mars",
    "lat": -0.7139,
    "lon": -37.9988,
    "lon_180": -37.99880000000002,
    "feature_type": null,
    "raw_name": "Camiling"
  },
  "camiri": {
    "body": "Mars",
    "lat": -44.6547,
    "lon": -42.172,
    "lon_180": -42.172,
    "feature_type": null,
    "raw_name": "Camiri"
  },
  "campbell": {
    "body": "Mars",
    "lat": -54.2541,
    "lon": 165.581,
    "lon_180": 165.58100000000002,
    "feature_type": null,
    "raw_name": "Campbell"
  },
  "campos": {
    "body": "Mars",
    "lat": -21.7981,
    "lon": -27.8142,
    "lon_180": -27.8142,
    "feature_type": null,
    "raw_name": "Campos"
  },
  "can": {
    "body": "Mars",
    "lat": 48.2065,
    "lon": -14.5851,
    "lon_180": -14.585100000000011,
    "feature_type": null,
    "raw_name": "Can"
  },
  "canberra": {
    "body": "Mars",
    "lat": 47.2032,
    "lon": 132.662,
    "lon_180": 132.66200000000003,
    "feature_type": null,
    "raw_name": "Canberra"
  },
  "cangwu": {
    "body": "Mars",
    "lat": 41.8456,
    "lon": -89.5913,
    "lon_180": -89.5913,
    "feature_type": null,
    "raw_name": "Cangwu"
  },
  "canso": {
    "body": "Mars",
    "lat": 21.3641,
    "lon": -60.6204,
    "lon_180": -60.62039999999999,
    "feature_type": null,
    "raw_name": "Canso"
  },
  "cartago": {
    "body": "Mars",
    "lat": -23.2527,
    "lon": -17.9724,
    "lon_180": -17.972399999999993,
    "feature_type": null,
    "raw_name": "Cartago"
  },
  "cassini": {
    "body": "Mars",
    "lat": 23.3513,
    "lon": 32.1103,
    "lon_180": 32.110299999999995,
    "feature_type": null,
    "raw_name": "Cassini"
  },
  "castril": {
    "body": "Mars",
    "lat": -14.6992,
    "lon": 175.3002,
    "lon_180": 175.30020000000002,
    "feature_type": null,
    "raw_name": "Castril"
  },
  "cave": {
    "body": "Mars",
    "lat": 21.6143,
    "lon": -35.6391,
    "lon_180": -35.639099999999985,
    "feature_type": null,
    "raw_name": "Cave"
  },
  "caxias": {
    "body": "Mars",
    "lat": -28.9543,
    "lon": -100.6805,
    "lon_180": -100.6805,
    "feature_type": null,
    "raw_name": "Caxias"
  },
  "canas": {
    "body": "Mars",
    "lat": -31.1875,
    "lon": 89.8581,
    "lon_180": 89.85809999999998,
    "feature_type": null,
    "raw_name": "Cañas"
  },
  "cerulli": {
    "body": "Mars",
    "lat": 32.2019,
    "lon": 22.1161,
    "lon_180": 22.11609999999999,
    "feature_type": null,
    "raw_name": "Cerulli"
  },
  "chafe": {
    "body": "Mars",
    "lat": 15.1013,
    "lon": 102.4098,
    "lon_180": 102.40980000000002,
    "feature_type": null,
    "raw_name": "Chafe"
  },
  "chamberlin": {
    "body": "Mars",
    "lat": -65.8441,
    "lon": -124.2911,
    "lon_180": -124.2911,
    "feature_type": null,
    "raw_name": "Chamberlin"
  },
  "changsong": {
    "body": "Mars",
    "lat": 23.4704,
    "lon": -57.3395,
    "lon_180": -57.3395,
    "feature_type": null,
    "raw_name": "Changsŏng"
  },
  "chapais": {
    "body": "Mars",
    "lat": -22.3457,
    "lon": -20.554,
    "lon_180": -20.554000000000002,
    "feature_type": null,
    "raw_name": "Chapais"
  },
  "charlier": {
    "body": "Mars",
    "lat": -68.5606,
    "lon": -168.4678,
    "lon_180": -168.4678,
    "feature_type": null,
    "raw_name": "Charlier"
  },
  "charlieu": {
    "body": "Mars",
    "lat": 38.1544,
    "lon": -83.9872,
    "lon_180": -83.9872,
    "feature_type": null,
    "raw_name": "Charlieu"
  },
  "chatturat": {
    "body": "Mars",
    "lat": 35.3801,
    "lon": -94.9433,
    "lon_180": -94.9433,
    "feature_type": null,
    "raw_name": "Chatturat"
  },
  "chauk": {
    "body": "Mars",
    "lat": 23.3532,
    "lon": -55.9095,
    "lon_180": -55.90950000000001,
    "feature_type": null,
    "raw_name": "Chauk"
  },
  "cheb": {
    "body": "Mars",
    "lat": -24.1962,
    "lon": -19.4433,
    "lon_180": -19.443299999999994,
    "feature_type": null,
    "raw_name": "Cheb"
  },
  "chefu": {
    "body": "Mars",
    "lat": -22.9122,
    "lon": 112.2416,
    "lon_180": 112.2416,
    "feature_type": null,
    "raw_name": "Chefu"
  },
  "chekalin": {
    "body": "Mars",
    "lat": -24.2753,
    "lon": -26.8085,
    "lon_180": -26.80850000000001,
    "feature_type": null,
    "raw_name": "Chekalin"
  },
  "chia": {
    "body": "Mars",
    "lat": 1.571,
    "lon": -59.653,
    "lon_180": -59.65299999999999,
    "feature_type": null,
    "raw_name": "Chia"
  },
  "chimbote": {
    "body": "Mars",
    "lat": -1.4233,
    "lon": -39.6829,
    "lon_180": -39.68289999999999,
    "feature_type": null,
    "raw_name": "Chimbote"
  },
  "chincoteague": {
    "body": "Mars",
    "lat": 41.2045,
    "lon": 124.1163,
    "lon_180": 124.11630000000002,
    "feature_type": null,
    "raw_name": "Chincoteague"
  },
  "chinju": {
    "body": "Mars",
    "lat": -4.5162,
    "lon": -42.1433,
    "lon_180": -42.14330000000001,
    "feature_type": null,
    "raw_name": "Chinju"
  },
  "chinook": {
    "body": "Mars",
    "lat": 22.5022,
    "lon": -55.459,
    "lon_180": -55.459,
    "feature_type": null,
    "raw_name": "Chinook"
  },
  "chive": {
    "body": "Mars",
    "lat": 21.6819,
    "lon": -56.0133,
    "lon_180": -56.0133,
    "feature_type": null,
    "raw_name": "Chive"
  },
  "choctaw": {
    "body": "Mars",
    "lat": -41.1856,
    "lon": -37.2426,
    "lon_180": -37.24260000000001,
    "feature_type": null,
    "raw_name": "Choctaw"
  },
  "chom": {
    "body": "Mars",
    "lat": 38.5741,
    "lon": -2.51509999999996,
    "lon_180": -2.5150999999999613,
    "feature_type": null,
    "raw_name": "Chom"
  },
  "chur": {
    "body": "Mars",
    "lat": 16.9344,
    "lon": -29.3057,
    "lon_180": -29.3057,
    "feature_type": null,
    "raw_name": "Chur"
  },
  "circle": {
    "body": "Mars",
    "lat": -22.1717,
    "lon": -25.5255,
    "lon_180": -25.525499999999994,
    "feature_type": null,
    "raw_name": "Circle"
  },
  "clova": {
    "body": "Mars",
    "lat": 21.4659,
    "lon": -52.0451,
    "lon_180": -52.04509999999999,
    "feature_type": null,
    "raw_name": "Clova"
  },
  "clark": {
    "body": "Mars",
    "lat": -55.1437,
    "lon": -133.204,
    "lon_180": -133.204,
    "feature_type": null,
    "raw_name": "Clark"
  },
  "clogh": {
    "body": "Mars",
    "lat": 20.5633,
    "lon": -47.668,
    "lon_180": -47.668000000000006,
    "feature_type": null,
    "raw_name": "Clogh"
  },
  "cluny": {
    "body": "Mars",
    "lat": -23.8646,
    "lon": -27.3022,
    "lon_180": -27.3022,
    "feature_type": null,
    "raw_name": "Cluny"
  },
  "cobalt": {
    "body": "Mars",
    "lat": -25.7878,
    "lon": -27.0334,
    "lon_180": -27.0334,
    "feature_type": null,
    "raw_name": "Cobalt"
  },
  "coblentz": {
    "body": "Mars",
    "lat": -54.8999,
    "lon": -90.3081,
    "lon_180": -90.3081,
    "feature_type": null,
    "raw_name": "Coblentz"
  },
  "cobres": {
    "body": "Mars",
    "lat": -11.6966,
    "lon": -153.598,
    "lon_180": -153.598,
    "feature_type": null,
    "raw_name": "Cobres"
  },
  "columbus": {
    "body": "Mars",
    "lat": -29.2933,
    "lon": -165.9821,
    "lon_180": -165.9821,
    "feature_type": null,
    "raw_name": "Columbus"
  },
  "comas sola": {
    "body": "Mars",
    "lat": -19.59,
    "lon": -158.512,
    "lon_180": -158.512,
    "feature_type": null,
    "raw_name": "Comas Sola"
  },
  "conches": {
    "body": "Mars",
    "lat": -4.2237,
    "lon": -34.2028,
    "lon_180": -34.202799999999996,
    "feature_type": null,
    "raw_name": "Conches"
  },
  "concord": {
    "body": "Mars",
    "lat": 16.5251,
    "lon": -34.0204,
    "lon_180": -34.020399999999995,
    "feature_type": null,
    "raw_name": "Concord"
  },
  "cooma": {
    "body": "Mars",
    "lat": -23.686,
    "lon": -108.3499,
    "lon_180": -108.3499,
    "feature_type": null,
    "raw_name": "Cooma"
  },
  "copernicus": {
    "body": "Mars",
    "lat": -48.8446,
    "lon": -168.828,
    "lon_180": -168.828,
    "feature_type": null,
    "raw_name": "Copernicus"
  },
  "corby": {
    "body": "Mars",
    "lat": 42.8755,
    "lon": 137.5615,
    "lon_180": 137.56150000000002,
    "feature_type": null,
    "raw_name": "Corby"
  },
  "cost": {
    "body": "Mars",
    "lat": 14.9787,
    "lon": 104.0197,
    "lon_180": 104.0197,
    "feature_type": null,
    "raw_name": "Cost"
  },
  "cray": {
    "body": "Mars",
    "lat": 44.0958,
    "lon": -16.1181,
    "lon_180": -16.1181,
    "feature_type": null,
    "raw_name": "Cray"
  },
  "creel": {
    "body": "Mars",
    "lat": -6.0473,
    "lon": -38.8516,
    "lon_180": -38.85159999999999,
    "feature_type": null,
    "raw_name": "Creel"
  },
  "crewe": {
    "body": "Mars",
    "lat": -24.8409,
    "lon": -19.5269,
    "lon_180": -19.526900000000012,
    "feature_type": null,
    "raw_name": "Crewe"
  },
  "crivitz": {
    "body": "Mars",
    "lat": -14.5507,
    "lon": 174.789,
    "lon_180": 174.789,
    "feature_type": null,
    "raw_name": "Crivitz"
  },
  "crommelin": {
    "body": "Mars",
    "lat": 5.0776,
    "lon": -10.137,
    "lon_180": -10.137,
    "feature_type": null,
    "raw_name": "Crommelin"
  },
  "cruls": {
    "body": "Mars",
    "lat": -42.9125,
    "lon": 163.0256,
    "lon_180": 163.0256,
    "feature_type": null,
    "raw_name": "Cruls"
  },
  "cruz": {
    "body": "Mars",
    "lat": 38.4634,
    "lon": -1.96629999999999,
    "lon_180": -1.9662999999999897,
    "feature_type": null,
    "raw_name": "Cruz"
  },
  "cue": {
    "body": "Mars",
    "lat": -35.8354,
    "lon": 93.2284,
    "lon_180": 93.22839999999997,
    "feature_type": null,
    "raw_name": "Cue"
  },
  "curie": {
    "body": "Mars",
    "lat": 28.7832,
    "lon": -4.75079999999997,
    "lon_180": -4.75079999999997,
    "feature_type": null,
    "raw_name": "Curie"
  },