{
  "sinus lunicus": {
    "body": "Moon",
    "lat": 32.3641,
    "lon": -1.85109999999997,
    "lon_180": -1.851099999999974,
    "feature_type": null,
    "raw_name": "Sinus Lunicus"
  },
  "marco polo p": {
    "body": "Moon",
    "lat": 16.9673,
    "lon": -0.3185,
    "lon_180": -0.3185000000000002,
    "feature_type": null,
    "raw_name": "Marco Polo P"
  },
  "vallis krishna": {
    "body": "Moon",
    "lat": 24.5023,
    "lon": 11.2632,
    "lon_180": 11.263200000000012,
    "feature_type": null,
    "raw_name": "Vallis Krishna"
  },
  "rima sung-mei": {
    "body": "Moon",
    "lat": 24.5878,
    "lon": 11.2842,
    "lon_180": 11.284199999999998,
    "feature_type": null,
    "raw_name": "Rima Sung-Mei"
  },
  "rima siegfried": {
    "body": "Moon",
    "lat": -25.822,
    "lon": 103.0067,
    "lon_180": 103.00670000000002,
    "feature_type": null,
    "raw_name": "Rima Siegfried"
  },
  "rimae sosigenes": {
    "body": "Moon",
    "lat": 8.0803,
    "lon": 18.7179,
    "lon_180": 18.717899999999986,
    "feature_type": null,
    "raw_name": "Rimae Sosigenes"
  },
  "montanari": {
    "body": "Moon",
    "lat": -45.8282,
    "lon": -20.7551,
    "lon_180": -20.7551,
    "feature_type": null,
    "raw_name": "Montanari"
  },
  "zeeman": {
    "body": "Moon",
    "lat": -75.0682,
    "lon": -135.0613,
    "lon_180": -135.0613,
    "feature_type": null,
    "raw_name": "Zeeman"
  },
  "burg": {
    "body": "Moon",
    "lat": 45.0734,
    "lon": 28.2081,
    "lon_180": 28.2081,
    "feature_type": null,
    "raw_name": "Bürg"
  },
  "carlos": {
    "body": "Moon",
    "lat": 24.9075,
    "lon": 2.2832,
    "lon_180": 2.2831999999999937,
    "feature_type": null,
    "raw_name": "Carlos"
  },
  "c. herschel": {
    "body": "Moon",
    "lat": 34.4815,
    "lon": -31.2949,
    "lon_180": -31.294899999999984,
    "feature_type": null,
    "raw_name": "C. Herschel"
  },
  "guericke s": {
    "body": "Moon",
    "lat": -10.3569,
    "lon": -13.399,
    "lon_180": -13.399000000000001,
    "feature_type": null,
    "raw_name": "Guericke S"
  },
  "calippus": {
    "body": "Moon",
    "lat": 38.9249,
    "lon": 10.7175,
    "lon_180": 10.717500000000001,
    "feature_type": null,
    "raw_name": "Calippus"
  },
  "carol": {
    "body": "Moon",
    "lat": 8.4792,
    "lon": 122.3685,
    "lon_180": 122.36849999999998,
    "feature_type": null,
    "raw_name": "Carol"
  },
  "daniell": {
    "body": "Moon",
    "lat": 35.4201,
    "lon": 31.1645,
    "lon_180": 31.164500000000004,
    "feature_type": null,
    "raw_name": "Daniell"
  },
  "de vico": {
    "body": "Moon",
    "lat": -19.7114,
    "lon": -60.3189,
    "lon_180": -60.3189,
    "feature_type": null,
    "raw_name": "De Vico"
  },
  "dorsa harker": {
    "body": "Moon",
    "lat": 13.7895,
    "lon": 63.652,
    "lon_180": 63.65199999999999,
    "feature_type": null,
    "raw_name": "Dorsa Harker"
  },
  "dorsa cato": {
    "body": "Moon",
    "lat": 0.2131,
    "lon": 47.7005,
    "lon_180": 47.700500000000005,
    "feature_type": null,
    "raw_name": "Dorsa Cato"
  },
  "eudoxus": {
    "body": "Moon",
    "lat": 44.2656,
    "lon": 16.2257,
    "lon_180": 16.22569999999999,
    "feature_type": null,
    "raw_name": "Eudoxus"
  },
  "ewen": {
    "body": "Moon",
    "lat": 7.6903,
    "lon": 121.4604,
    "lon_180": 121.46039999999999,
    "feature_type": null,
    "raw_name": "Ewen"
  },
  "fedorov": {
    "body": "Moon",
    "lat": 28.2265,
    "lon": -37.0462,
    "lon_180": -37.0462,
    "feature_type": null,
    "raw_name": "Fedorov"
  },
  "florensky": {
    "body": "Moon",
    "lat": 25.4517,
    "lon": 131.8508,
    "lon_180": 131.8508,
    "feature_type": null,
    "raw_name": "Florensky"
  },
  "franklin": {
    "body": "Moon",
    "lat": 38.7288,
    "lon": 47.6397,
    "lon_180": 47.639700000000005,
    "feature_type": null,
    "raw_name": "Franklin"
  },
  "freud": {
    "body": "Moon",
    "lat": 25.7932,
    "lon": -52.3985,
    "lon_180": -52.3985,
    "feature_type": null,
    "raw_name": "Freud"
  },
  "gagarin": {
    "body": "Moon",
    "lat": -19.6576,
    "lon": 149.3541,
    "lon_180": 149.35410000000002,
    "feature_type": null,
    "raw_name": "Gagarin"
  },
  "harding": {
    "body": "Moon",
    "lat": 43.5401,
    "lon": -71.6562,
    "lon_180": -71.6562,
    "feature_type": null,
    "raw_name": "Harding"
  },
  "hermite": {
    "body": "Moon",
    "lat": 86.1659,
    "lon": -93.3152,
    "lon_180": -93.3152,
    "feature_type": null,
    "raw_name": "Hermite"
  },
  "harkhebi": {
    "body": "Moon",
    "lat": 40.8705,
    "lon": 98.7449,
    "lon_180": 98.74490000000003,
    "feature_type": null,
    "raw_name": "Harkhebi"
  },
  "heron (hero)": {
    "body": "Moon",
    "lat": 0.6525,
    "lon": 119.8771,
    "lon_180": 119.87709999999998,
    "feature_type": null,
    "raw_name": "Heron (Hero)"
  },
  "ivan": {
    "body": "Moon",
    "lat": 26.8565,
    "lon": -43.2568,
    "lon_180": -43.2568,
    "feature_type": null,
    "raw_name": "Ivan"
  },
  "hertzsprung": {
    "body": "Moon",
    "lat": 1.3651,
    "lon": -128.6561,
    "lon_180": -128.6561,
    "feature_type": null,
    "raw_name": "Hertzsprung"
  },
  "hind": {
    "body": "Moon",
    "lat": -7.918,
    "lon": 7.3058,
    "lon_180": 7.305800000000005,
    "feature_type": null,
    "raw_name": "Hind"
  },
  "ina": {
    "body": "Moon",
    "lat": 18.659,
    "lon": 5.3043,
    "lon_180": 5.304300000000012,
    "feature_type": null,
    "raw_name": "Ina"
  },
  "isis": {
    "body": "Moon",
    "lat": 18.9531,
    "lon": 27.482,
    "lon_180": 27.482,
    "feature_type": null,
    "raw_name": "Isis"
  },
  "joliot": {
    "body": "Moon",
    "lat": 25.7883,
    "lon": 93.3896,
    "lon_180": 93.38959999999997,
    "feature_type": null,
    "raw_name": "Joliot"
  },
  "kearons": {
    "body": "Moon",
    "lat": -11.5877,
    "lon": -112.9184,
    "lon_180": -112.9184,
    "feature_type": null,
    "raw_name": "Kearons"
  },
  "karima": {
    "body": "Moon",
    "lat": -25.9326,
    "lon": 102.982,
    "lon_180": 102.98199999999997,
    "feature_type": null,
    "raw_name": "Karima"
  },
  "kira": {
    "body": "Moon",
    "lat": -17.7073,
    "lon": 132.8316,
    "lon_180": 132.83159999999998,
    "feature_type": null,
    "raw_name": "Kira"
  },
  "kirch": {
    "body": "Moon",
    "lat": 39.2652,
    "lon": -5.62219999999996,
    "lon_180": -5.622199999999964,
    "feature_type": null,
    "raw_name": "Kirch"
  },
  "lacus spei": {
    "body": "Moon",
    "lat": 43.461,
    "lon": 65.2035,
    "lon_180": 65.20350000000002,
    "feature_type": null,
    "raw_name": "Lacus Spei"
  },
  "lacchini": {
    "body": "Moon",
    "lat": 41.2944,
    "lon": -107.83,
    "lon_180": -107.83,
    "feature_type": null,
    "raw_name": "Lacchini"
  },
  "kundt": {
    "body": "Moon",
    "lat": -11.567,
    "lon": -11.5675,
    "lon_180": -11.567499999999995,
    "feature_type": null,
    "raw_name": "Kundt"
  },
  "mach": {
    "body": "Moon",
    "lat": 18.1279,
    "lon": -149.2365,
    "lon_180": -149.2365,
    "feature_type": null,
    "raw_name": "Mach"
  },
  "apollonius l": {
    "body": "Moon",
    "lat": 6.471,
    "lon": 54.5668,
    "lon_180": 54.5668,
    "feature_type": null,
    "raw_name": "Apollonius L"
  },
  "lacus bonitatis": {
    "body": "Moon",
    "lat": 23.183,
    "lon": 44.3158,
    "lon_180": 44.315799999999996,
    "feature_type": null,
    "raw_name": "Lacus Bonitatis"
  },
  "lorentz": {
    "body": "Moon",
    "lat": 34.5886,
    "lon": -97.187,
    "lon_180": -97.187,
    "feature_type": null,
    "raw_name": "Lorentz"
  },
  "lacus gaudii": {
    "body": "Moon",
    "lat": 16.3319,
    "lon": 12.2745,
    "lon_180": 12.274499999999989,
    "feature_type": null,
    "raw_name": "Lacus Gaudii"
  },
  "lacus hiemalis": {
    "body": "Moon",
    "lat": 15.008,
    "lon": 13.9744,
    "lon_180": 13.974400000000003,
    "feature_type": null,
    "raw_name": "Lacus Hiemalis"
  },
  "lacus lenitatis": {
    "body": "Moon",
    "lat": 14.3165,
    "lon": 12.0549,
    "lon_180": 12.054900000000004,
    "feature_type": null,
    "raw_name": "Lacus Lenitatis"
  },
  "lacus luxuriae": {
    "body": "Moon",
    "lat": 19.4083,
    "lon": 175.5042,
    "lon_180": 175.50419999999997,
    "feature_type": null,
    "raw_name": "Lacus Luxuriae"
  },
  "le verrier": {
    "body": "Moon",
    "lat": 40.3266,
    "lon": -20.6098,
    "lon_180": -20.609800000000007,
    "feature_type": null,
    "raw_name": "Le Verrier"
  },
  "mons ampere": {
    "body": "Moon",
    "lat": 19.3239,
    "lon": -3.70949999999999,
    "lon_180": -3.7094999999999914,
    "feature_type": null,
    "raw_name": "Mons Ampère"
  },
  "mons dilip": {
    "body": "Moon",
    "lat": 5.5826,
    "lon": 120.8666,
    "lon_180": 120.8666,
    "feature_type": null,
    "raw_name": "Mons Dilip"
  },
  "nansen": {
    "body": "Moon",
    "lat": 81.1708,
    "lon": 95.3805,
    "lon_180": 95.38049999999998,
    "feature_type": null,
    "raw_name": "Nansen"
  },
  "macmillan": {
    "body": "Moon",
    "lat": 24.2008,
    "lon": -7.84659999999997,
    "lon_180": -7.846599999999967,
    "feature_type": null,
    "raw_name": "MacMillan"
  },
  "wessex cleft": {
    "body": "Moon",
    "lat": 20.343,
    "lon": 30.8915,
    "lon_180": 30.891500000000008,
    "feature_type": null,
    "raw_name": "Wessex Cleft"
  },
  "lundmark": {
    "body": "Moon",
    "lat": -38.8699,
    "lon": 152.5579,
    "lon_180": 152.55790000000002,
    "feature_type": null,
    "raw_name": "Lundmark"
  },
  "mandel'shtam": {
    "body": "Moon",
    "lat": 5.6977,
    "lon": 162.3877,
    "lon_180": 162.3877,
    "feature_type": null,
    "raw_name": "Mandel'shtam"
  },
  "mare australe": {
    "body": "Moon",
    "lat": -47.7705,
    "lon": 91.9854,
    "lon_180": 91.98540000000003,
    "feature_type": null,
    "raw_name": "Mare Australe"
  },
  "mare spumans": {
    "body": "Moon",
    "lat": 1.3023,
    "lon": 65.3033,
    "lon_180": 65.30329999999998,
    "feature_type": null,
    "raw_name": "Mare Spumans"
  },
  "marth": {
    "body": "Moon",
    "lat": -31.1567,
    "lon": -29.3505,
    "lon_180": -29.35050000000001,
    "feature_type": null,
    "raw_name": "Marth"
  },
  "mons gruithuisen delta": {
    "body": "Moon",
    "lat": 36.0678,
    "lon": -39.5899,
    "lon_180": -39.5899,
    "feature_type": null,
    "raw_name": "Mons Gruithuisen Delta"
  },
  "mons gruithuisen gamma": {
    "body": "Moon",
    "lat": 36.5585,
    "lon": -40.7213,
    "lon_180": -40.721299999999985,
    "feature_type": null,
    "raw_name": "Mons Gruithuisen Gamma"
  },
  "mons usov": {
    "body": "Moon",
    "lat": 11.908,
    "lon": 63.2636,
    "lon_180": 63.2636,
    "feature_type": null,
    "raw_name": "Mons Usov"
  },
  "mons vinogradov": {
    "body": "Moon",
    "lat": 22.3497,
    "lon": -32.519,
    "lon_180": -32.519000000000005,
    "feature_type": null,
    "raw_name": "Mons Vinogradov"
  },
  "montes haemus": {
    "body": "Moon",
    "lat": 17.1071,
    "lon": 12.0308,
    "lon_180": 12.0308,
    "feature_type": null,
    "raw_name": "Montes Haemus"
  },
  "montes harbinger": {
    "body": "Moon",
    "lat": 26.8923,
    "lon": -41.2901,
    "lon_180": -41.290099999999995,
    "feature_type": null,
    "raw_name": "Montes Harbinger"
  },
  "montes pyrenaeus": {
    "body": "Moon",
    "lat": -14.048,
    "lon": 41.5097,
    "lon_180": 41.50970000000001,
    "feature_type": null,
    "raw_name": "Montes Pyrenaeus"
  },
  "poincare": {
    "body": "Moon",
    "lat": -56.8623,
    "lon": 163.9945,
    "lon_180": 163.99450000000002,
    "feature_type": null,
    "raw_name": "Poincaré"
  },
  "palus somni": {
    "body": "Moon",
    "lat": 13.6881,
    "lon": 44.7247,
    "lon_180": 44.724699999999984,
    "feature_type": null,
    "raw_name": "Palus Somni"
  },
  "promontorium deville": {
    "body": "Moon",
    "lat": 43.3087,
    "lon": 1.1352,
    "lon_180": 1.1351999999999975,
    "feature_type": null,
    "raw_name": "Promontorium Deville"
  },
  "promontorium agassiz": {
    "body": "Moon",
    "lat": 42.3979,
    "lon": 1.7687,
    "lon_180": 1.7686999999999955,
    "feature_type": null,
    "raw_name": "Promontorium Agassiz"
  },
  "stella": {
    "body": "Moon",
    "lat": 19.9124,
    "lon": 29.7579,
    "lon_180": 29.757900000000006,
    "feature_type": null,
    "raw_name": "Stella"
  },
  "reiner gamma": {
    "body": "Moon",
    "lat": 7.3853,
    "lon": -58.9583,
    "lon_180": -58.95830000000001,
    "feature_type": null,
    "raw_name": "Reiner Gamma"
  },
  "sinus aestuum": {
    "body": "Moon",
    "lat": 12.0976,
    "lon": -8.33959999999996,
    "lon_180": -8.339599999999962,
    "feature_type": null,
    "raw_name": "Sinus Aestuum"
  },
  "schickard": {
    "body": "Moon",
    "lat": -44.3793,
    "lon": -55.1052,
    "lon_180": -55.105199999999996,
    "feature_type": null,
    "raw_name": "Schickard"
  },
  "sinus roris": {
    "body": "Moon",
    "lat": 50.2613,
    "lon": -50.8588,
    "lon_180": -50.8588,
    "feature_type": null,
    "raw_name": "Sinus Roris"
  },
  "sinus successus": {
    "body": "Moon",
    "lat": 1.1242,
    "lon": 58.5198,
    "lon_180": 58.519800000000004,
    "feature_type": null,
    "raw_name": "Sinus Successus"
  },
  "taizo": {
    "body": "Moon",
    "lat": 24.7024,
    "lon": 2.1961,
    "lon_180": 2.1961000000000013,
    "feature_type": null,
    "raw_name": "Taizo"
  },
  "tikhomirov": {
    "body": "Moon",
    "lat": 24.1988,
    "lon": 161.3329,
    "lon_180": 161.3329,
    "feature_type": null,
    "raw_name": "Tikhomirov"
  },
  "van de graaff": {
    "body": "Moon",
    "lat": -27.0413,
    "lon": 172.008,
    "lon_180": 172.00800000000004,
    "feature_type": null,
    "raw_name": "Van de Graaff"
  },
  "vertregt": {
    "body": "Moon",
    "lat": -19.2999,
    "lon": 171.1203,
    "lon_180": 171.1203,
    "feature_type": null,
    "raw_name": "Vertregt"
  },
  "adams b": {
    "body": "Moon",
    "lat": -31.5429,
    "lon": 65.7007,
    "lon_180": 65.70069999999998,
    "feature_type": null,
    "raw_name": "Adams B"
  },
  "al-khwarizmi g": {
    "body": "Moon",
    "lat": 6.7559,
    "lon": 107.3457,
    "lon_180": 107.34569999999997,
    "feature_type": null,
    "raw_name": "Al-Khwarizmi G"
  },
  "alden e": {
    "body": "Moon",
    "lat": -23.4178,
    "lon": 112.8052,
    "lon_180": 112.80520000000001,
    "feature_type": null,
    "raw_name": "Alden E"
  },
  "alexander k": {
    "body": "Moon",
    "lat": 40.5214,
    "lon": 19.3497,
    "lon_180": 19.349699999999984,
    "feature_type": null,
    "raw_name": "Alexander K"
  },
  "aliacensis k": {
    "body": "Moon",
    "lat": -31.4289,
    "lon": 6.2589,
    "lon_180": 6.258900000000011,
    "feature_type": null,
    "raw_name": "Aliacensis K"
  },
  "hayford p": {
    "body": "Moon",
    "lat": 11.0094,
    "lon": -177.737,
    "lon_180": -177.737,
    "feature_type": null,
    "raw_name": "Hayford P"
  },
  "fourier p": {
    "body": "Moon",
    "lat": -31.1156,
    "lon": -55.0731,
    "lon_180": -55.0731,
    "feature_type": null,
    "raw_name": "Fourier P"
  },
  "bridgman c": {
    "body": "Moon",
    "lat": 46.5681,
    "lon": 140.4018,
    "lon_180": 140.40179999999998,
    "feature_type": null,
    "raw_name": "Bridgman C"
  },
  "maskelyne y": {
    "body": "Moon",
    "lat": 1.7295,
    "lon": 28.1608,
    "lon_180": 28.160799999999995,
    "feature_type": null,
    "raw_name": "Maskelyne Y"
  },
  "avicenna e": {
    "body": "Moon",
    "lat": 40.1947,
    "lon": -91.2505,
    "lon_180": -91.2505,
    "feature_type": null,
    "raw_name": "Avicenna E"
  },
  "barbier k": {
    "body": "Moon",
    "lat": -26.2883,
    "lon": 159.2015,
    "lon_180": 159.2015,
    "feature_type": null,
    "raw_name": "Barbier K"
  },
  "barocius c": {
    "body": "Moon",
    "lat": -43.107,
    "lon": 17.4776,
    "lon_180": 17.477599999999995,
    "feature_type": null,
    "raw_name": "Barocius C"
  },
  "bayer s": {
    "body": "Moon",
    "lat": -52.3256,
    "lon": -36.4471,
    "lon_180": -36.447100000000006,
    "feature_type": null,
    "raw_name": "Bayer S"
  },
  "birkhoff m": {
    "body": "Moon",
    "lat": 54.5016,
    "lon": -145.0623,
    "lon_180": -145.0623,
    "feature_type": null,
    "raw_name": "Birkhoff M"
  },
  "bolyai w": {
    "body": "Moon",
    "lat": -32.0476,
    "lon": 124.4161,
    "lon_180": 124.41610000000003,
    "feature_type": null,
    "raw_name": "Bolyai W"
  },
  "boscovich p": {
    "body": "Moon",
    "lat": 11.4688,
    "lon": 10.3089,
    "lon_180": 10.308899999999994,
    "feature_type": null,
    "raw_name": "Boscovich P"
  },
  "briggs a": {
    "body": "Moon",
    "lat": 27.1248,
    "lon": -73.779,
    "lon_180": -73.779,
    "feature_type": null,
    "raw_name": "Briggs A"
  },
  "brown e": {
    "body": "Moon",
    "lat": -46.8589,
    "lon": -17.6289,
    "lon_180": -17.628899999999987,
    "feature_type": null,
    "raw_name": "Brown E"
  },
  "buch e": {
    "body": "Moon",
    "lat": -38.9765,
    "lon": 16.5025,
    "lon_180": 16.502499999999998,
    "feature_type": null,
    "raw_name": "Buch E"
  },
  "bullialdus g": {
    "body": "Moon",
    "lat": -23.2709,
    "lon": -23.7006,
    "lon_180": -23.70060000000001,
    "feature_type": null,
    "raw_name": "Bullialdus G"
  },
  "bullialdus h": {
    "body": "Moon",
    "lat": -22.7532,
    "lon": -19.3603,
    "lon_180": -19.360299999999995,
    "feature_type": null,
    "raw_name": "Bullialdus H"
  },
  "bunsen b": {
    "body": "Moon",
    "lat": 44.1092,
    "lon": -88.0296,
    "lon_180": -88.0296,
    "feature_type": null,
    "raw_name": "Bunsen B"
  },
  "buys-ballot h": {
    "body": "Moon",
    "lat": 19.5268,
    "lon": 179.6066,
    "lon_180": 179.60659999999996,
    "feature_type": null,
    "raw_name": "Buys-Ballot H"
  },
  "byrgius s": {
    "body": "Moon",
    "lat": -26.0622,
    "lon": -61.774,
    "lon_180": -61.774,
    "feature_type": null,
    "raw_name": "Byrgius S"
  },
  "calippus a": {
    "body": "Moon",
    "lat": 37.06,
    "lon": 7.8706,
    "lon_180": 7.870599999999996,
    "feature_type": null,
    "raw_name": "Calippus A"
  },
  "calippus c": {
    "body": "Moon",
    "lat": 39.4346,
    "lon": 9.1573,
    "lon_180": 9.157299999999992,
    "feature_type": null,
    "raw_name": "Calippus C"
  },
  "cannon e": {
    "body": "Moon",
    "lat": 19.2674,
    "lon": 78.9943,
    "lon_180": 78.99430000000001,
    "feature_type": null,
    "raw_name": "Cannon E"
  },
  "capuanus p": {
    "body": "Moon",
    "lat": -35.4432,
    "lon": -28.5917,
    "lon_180": -28.591700000000003,
    "feature_type": null,
    "raw_name": "Capuanus P"
  },
  "cassini a": {
    "body": "Moon",
    "lat": 40.5138,
    "lon": 4.7756,
    "lon_180": 4.775599999999997,
    "feature_type": null,
    "raw_name": "Cassini A"
  },
  "cassini w": {
    "body": "Moon",
    "lat": 42.3482,
    "lon": 4.2541,
    "lon_180": 4.254099999999994,
    "feature_type": null,
    "raw_name": "Cassini W"
  },
  "clairaut f": {
    "body": "Moon",
    "lat": -45.7775,
    "lon": 14.3536,
    "lon_180": 14.3536,
    "feature_type": null,
    "raw_name": "Clairaut F"
  },
  "condorcet e": {
    "body": "Moon",
    "lat": 11.3499,
    "lon": 68.1638,
    "lon_180": 68.16379999999998,
    "feature_type": null,
    "raw_name": "Condorcet E"
  },
  "daguerre k": {
    "body": "Moon",
    "lat": -12.2453,
    "lon": 35.7829,
    "lon_180": 35.782899999999984,
    "feature_type": null,
    "raw_name": "Daguerre K"
  },
  "de gasparis a": {
    "body": "Moon",
    "lat": -26.7375,
    "lon": -51.3731,
    "lon_180": -51.373099999999994,
    "feature_type": null,
    "raw_name": "de Gasparis A"
  },
  "de vico a": {
    "body": "Moon",
    "lat": -18.7487,
    "lon": -63.6164,
    "lon_180": -63.6164,
    "feature_type": null,
    "raw_name": "De Vico A"
  },
  "delambre f": {
    "body": "Moon",
    "lat": -1.0628,
    "lon": 19.2477,
    "lon_180": 19.24770000000001,
    "feature_type": null,
    "raw_name": "Delambre F"
  },
  "douglass x": {
    "body": "Moon",
    "lat": 38.0533,
    "lon": -124.0868,
    "lon_180": -124.0868,
    "feature_type": null,
    "raw_name": "Douglass X"
  },
  "drebbel p": {
    "body": "Moon",
    "lat": -39.7238,
    "lon": -51.9346,
    "lon_180": -51.93459999999999,
    "feature_type": null,
    "raw_name": "Drebbel P"
  },
  "dubyago x": {
    "body": "Moon",
    "lat": 6.4975,
    "lon": 73.0308,
    "lon_180": 73.0308,
    "feature_type": null,
    "raw_name": "Dubyago X"
  },
  "egede e": {
    "body": "Moon",
    "lat": 49.7375,
    "lon": 10.4322,
    "lon_180": 10.432199999999995,
    "feature_type": null,
    "raw_name": "Egede E"
  },
  "evershed s": {
    "body": "Moon",
    "lat": 34.5039,
    "lon": -162.8383,
    "lon_180": -162.8383,
    "feature_type": null,
    "raw_name": "Evershed S"
  },
  "eratosthenes z": {
    "body": "Moon",
    "lat": 13.7492,
    "lon": -14.0996,
    "lon_180": -14.09960000000001,
    "feature_type": null,
    "raw_name": "Eratosthenes Z"
  },
  "flammarion y": {
    "body": "Moon",
    "lat": -3.733,
    "lon": -3.19149999999996,
    "lon_180": -3.1914999999999623,
    "feature_type": null,
    "raw_name": "Flammarion Y"
  },
  "flamsteed x": {
    "body": "Moon",
    "lat": -2.2976,
    "lon": -47.3997,
    "lon_180": -47.399699999999996,
    "feature_type": null,
    "raw_name": "Flamsteed X"
  },
  "foster h": {
    "body": "Moon",
    "lat": 23.0179,
    "lon": -139.5754,
    "lon_180": -139.5754,
    "feature_type": null,
    "raw_name": "Foster H"
  },
  "fourier k": {
    "body": "Moon",
    "lat": -30.0389,
    "lon": -54.3518,
    "lon_180": -54.3518,
    "feature_type": null,
    "raw_name": "Fourier K"
  },
  "hevelius e": {
    "body": "Moon",
    "lat": 2.9582,
    "lon": -65.7824,
    "lon_180": -65.7824,
    "feature_type": null,
    "raw_name": "Hevelius E"
  },
  "geminus g": {
    "body": "Moon",
    "lat": 30.7969,
    "lon": 48.5747,
    "lon_180": 48.57470000000001,
    "feature_type": null,
    "raw_name": "Geminus G"
  },
  "gerard q outer": {
    "body": "Moon",
    "lat": 46.5122,
    "lon": -84.5471,
    "lon_180": -84.5471,
    "feature_type": null,
    "raw_name": "Gerard Q Outer"
  },
  "fracastorius w": {
    "body": "Moon",
    "lat": -22.6952,
    "lon": 35.6866,
    "lon_180": 35.6866,
    "feature_type": null,
    "raw_name": "Fracastorius W"
  },
  "franklin h": {
    "body": "Moon",
    "lat": 37.1202,
    "lon": 43.7447,
    "lon_180": 43.744699999999995,
    "feature_type": null,
    "raw_name": "Franklin H"
  },
  "fraunhofer a": {
    "body": "Moon",
    "lat": -39.5806,
    "lon": 61.6102,
    "lon_180": 61.61019999999999,
    "feature_type": null,
    "raw_name": "Fraunhofer A"
  },
  "gauss a": {
    "body": "Moon",
    "lat": 36.5383,
    "lon": 82.7671,
    "lon_180": 82.76710000000003,
    "feature_type": null,
    "raw_name": "Gauss A"
  },
  "furnerius v": {
    "body": "Moon",
    "lat": -35.7151,
    "lon": 65.499,
    "lon_180": 65.499,
    "feature_type": null,
    "raw_name": "Furnerius V"
  },
  "furnerius f": {
    "body": "Moon",
    "lat": -36.1004,
    "lon": 64.1219,
    "lon_180": 64.12189999999998,
    "feature_type": null,
    "raw_name": "Furnerius F"
  },
  "galilaei g": {
    "body": "Moon",
    "lat": 12.6525,
    "lon": -67.2559,
    "lon_180": -67.2559,
    "feature_type": null,
    "raw_name": "Galilaei G"
  },
  "guericke j": {
    "body": "Moon",
    "lat": -10.6186,
    "lon": -13.4251,
    "lon_180": -13.425099999999986,
    "feature_type": null,
    "raw_name": "Guericke J"
  },
  "galilaei s": {
    "body": "Moon",
    "lat": 15.4619,
    "lon": -64.7711,
    "lon_180": -64.7711,
    "feature_type": null,
    "raw_name": "Galilaei S"
  },
  "halley k": {
    "body": "Moon",
    "lat": -8.5679,
    "lon": 5.8184,
    "lon_180": 5.818399999999997,
    "feature_type": null,
    "raw_name": "Halley K"
  },
  "ganskiy (hansky) f": {
    "body": "Moon",
    "lat": -9.658,
    "lon": 98.9882,
    "lon_180": 98.9882,
    "feature_type": null,
    "raw_name": "Ganskiy (Hansky) F"
  },
  "gassendi l": {
    "body": "Moon",
    "lat": -20.3928,
    "lon": -41.7869,
    "lon_180": -41.7869,
    "feature_type": null,
    "raw_name": "Gassendi L"
  },
  "hermann l": {
    "body": "Moon",
    "lat": 2.4353,
    "lon": -59.2294,
    "lon_180": -59.2294,
    "feature_type": null,
    "raw_name": "Hermann L"
  },
  "gaudibert c": {
    "body": "Moon",
    "lat": -11.569,
    "lon": 37.7979,
    "lon_180": 37.7979,
    "feature_type": null,
    "raw_name": "Gaudibert C"
  },
  "gay-lussac h": {
    "body": "Moon",
    "lat": 13.412,
    "lon": -23.3309,
    "lon_180": -23.330899999999986,
    "feature_type": null,
    "raw_name": "Gay-Lussac H"
  },
  "hercules e": {
    "body": "Moon",
    "lat": 45.7994,
    "lon": 38.6996,
    "lon_180": 38.699600000000004,
    "feature_type": null,
    "raw_name": "Hercules E"
  },
  "hell q": {
    "body": "Moon",
    "lat": -32.9966,
    "lon": -4.46879999999999,
    "lon_180": -4.4687999999999874,
    "feature_type": null,
    "raw_name": "Hell Q"
  },
  "herigonius g": {
    "body": "Moon",
    "lat": -15.2742,
    "lon": -32.4583,
    "lon_180": -32.45830000000001,
    "feature_type": null,
    "raw_name": "Herigonius G"
  },
  "herodotus e": {
    "body": "Moon",
    "lat": 29.3493,
    "lon": -51.5239,
    "lon_180": -51.5239,
    "feature_type": null,
    "raw_name": "Herodotus E"
  },
  "herodotus n": {
    "body": "Moon",
    "lat": 23.6445,
    "lon": -50.1164,
    "lon_180": -50.1164,
    "feature_type": null,
    "raw_name": "Herodotus N"
  },
  "jules verne y": {
    "body": "Moon",
    "lat": -31.4464,
    "lon": 146.3595,
    "lon_180": 146.35950000000003,
    "feature_type": null,
    "raw_name": "Jules Verne Y"
  },
  "herschel j": {
    "body": "Moon",
    "lat": -6.4217,
    "lon": -4.28129999999999,
    "lon_180": -4.2812999999999874,
    "feature_type": null,
    "raw_name": "Herschel J"
  },
  "horrebow g": {
    "body": "Moon",
    "lat": 59.8224,
    "lon": -41.8412,
    "lon_180": -41.841200000000015,
    "feature_type": null,
    "raw_name": "Horrebow G"
  },
  "isidorus v": {
    "body": "Moon",
    "lat": -8.8844,
    "lon": 30.8148,
    "lon_180": 30.81479999999999,
    "feature_type": null,
    "raw_name": "Isidorus V"
  },
  "hyginus b": {
    "body": "Moon",
    "lat": 7.6089,
    "lon": 5.0713,
    "lon_180": 5.071300000000008,
    "feature_type": null,
    "raw_name": "Hyginus B"
  },
  "lacroix e": {
    "body": "Moon",
    "lat": -39.9745,
    "lon": -63.0271,
    "lon_180": -63.02709999999999,
    "feature_type": null,
    "raw_name": "Lacroix E"
  },
  "hyginus f": {
    "body": "Moon",
    "lat": 7.9905,
    "lon": 8.6063,
    "lon_180": 8.606300000000005,
    "feature_type": null,
    "raw_name": "Hyginus F"
  },
  "hyginus h": {
    "body": "Moon",
    "lat": 5.9425,
    "lon": 7.0099,
    "lon_180": 7.009899999999988,
    "feature_type": null,
    "raw_name": "Hyginus H"
  },
  "ingalls z": {
    "body": "Moon",
    "lat": 30.0929,
    "lon": -153.4741,
    "lon_180": -153.4741,
    "feature_type": null,
    "raw_name": "Ingalls Z"
  },
  "janssen r": {
    "body": "Moon",
    "lat": -48.2801,
    "lon": 38.7,
    "lon_180": 38.69999999999999,
    "feature_type": null,
    "raw_name": "Janssen R"
  },
  "jacobi q": {
    "body": "Moon",
    "lat": -55.8478,
    "lon": 14.0261,
    "lon_180": 14.026099999999985,
    "feature_type": null,
    "raw_name": "Jacobi Q"
  },
  "jansen g": {
    "body": "Moon",
    "lat": 9.3007,
    "lon": 26.0202,
    "lon_180": 26.02019999999999,
    "feature_type": null,
    "raw_name": "Jansen G"
  },
  "jansky d": {
    "body": "Moon",
    "lat": 9.5564,
    "lon": 91.2533,
    "lon_180": 91.25329999999997,
    "feature_type": null,
    "raw_name": "Jansky D"
  },
  "lacroix r": {
    "body": "Moon",
    "lat": -34.4351,
    "lon": -60.2201,
    "lon_180": -60.2201,
    "feature_type": null,
    "raw_name": "Lacroix R"
  },
  "janssen q": {
    "body": "Moon",
    "lat": -46.3495,
    "lon": 39.3642,
    "lon_180": 39.36419999999998,
    "feature_type": null,
    "raw_name": "Janssen Q"
  },
  "kant n": {
    "body": "Moon",
    "lat": -9.9149,
    "lon": 19.7148,
    "lon_180": 19.714799999999997,
    "feature_type": null,
    "raw_name": "Kant N"
  },
  "rheita e": {
    "body": "Moon",
    "lat": -34.2397,
    "lon": 48.9171,
    "lon_180": 48.917100000000005,
    "feature_type": null,
    "raw_name": "Rheita E"
  },
  "lubbock m": {
    "body": "Moon",
    "lat": -0.4051,
    "lon": 38.6928,
    "lon_180": 38.692800000000005,
    "feature_type": null,
    "raw_name": "Lubbock M"
  },
  "kapteyn z": {
    "body": "Moon",
    "lat": -11.2059,
    "lon": 72.5642,
    "lon_180": 72.5642,
    "feature_type": null,
    "raw_name": "Kapteyn Z"
  },
  "kastner g": {
    "body": "Moon",
    "lat": -3.6774,
    "lon": 79.3471,
    "lon_180": 79.34710000000001,
    "feature_type": null,
    "raw_name": "Kästner G"
  },
  "kelvin a": {
    "body": "Moon",
    "lat": -27.4868,
    "lon": -31.5739,
    "lon_180": -31.57390000000001,
    "feature_type": null,
    "raw_name": "Kelvin A"
  },
  "rocca q": {
    "body": "Moon",
    "lat": -15.2928,
    "lon": -69.1384,
    "lon_180": -69.1384,
    "feature_type": null,
    "raw_name": "Rocca Q"
  },
  "kirch f": {
    "body": "Moon",
    "lat": 38.0051,
    "lon": -6.048,
    "lon_180": -6.048000000000002,
    "feature_type": null,
    "raw_name": "Kirch F"
  },
  "kinau p": {
    "body": "Moon",
    "lat": -61.4244,
    "lon": 17.3602,
    "lon_180": 17.360199999999992,
    "feature_type": null,
    "raw_name": "Kinau P"
  },
  "lavoisier a": {
    "body": "Moon",
    "lat": 36.9726,
    "lon": -73.2639,
    "lon_180": -73.2639,
    "feature_type": null,
    "raw_name": "Lavoisier A"
  },
  "krusenstern a": {
    "body": "Moon",
    "lat": -26.9786,
    "lon": 5.8014,
    "lon_180": 5.801400000000001,
    "feature_type": null,
    "raw_name": "Krusenstern A"
  },
  "kugler u": {
    "body": "Moon",
    "lat": -53.5911,
    "lon": 101.7394,
    "lon_180": 101.73939999999999,
    "feature_type": null,
    "raw_name": "Kugler U"
  },
  "lacroix g": {
    "body": "Moon",
    "lat": -36.6164,
    "lon": -59.2492,
    "lon_180": -59.2492,
    "feature_type": null,
    "raw_name": "Lacroix G"
  },
  "lacroix j": {
    "body": "Moon",
    "lat": -38.3733,
    "lon": -59.4265,
    "lon_180": -59.426500000000004,
    "feature_type": null,
    "raw_name": "Lacroix J"
  },
  "lade x": {
    "body": "Moon",
    "lat": -1.7174,
    "lon": 11.038,
    "lon_180": 11.038000000000011,
    "feature_type": null,
    "raw_name": "Lade X"
  },
  "lansberg b": {
    "body": "Moon",
    "lat": -2.4939,
    "lon": -28.1394,
    "lon_180": -28.139399999999995,
    "feature_type": null,
    "raw_name": "Lansberg B"
  },
  "lansberg l": {
    "body": "Moon",
    "lat": -3.5559,
    "lon": -26.4063,
    "lon_180": -26.406299999999987,
    "feature_type": null,
    "raw_name": "Lansberg L"
  },
  "lavoisier l": {
    "body": "Moon",
    "lat": 39.7364,
    "lon": -74.9758,
    "lon_180": -74.9758,
    "feature_type": null,
    "raw_name": "Lavoisier L"
  },
  "lichtenberg h": {
    "body": "Moon",
    "lat": 31.5158,
    "lon": -58.9028,
    "lon_180": -58.9028,
    "feature_type": null,
    "raw_name": "Lichtenberg H"
  },
  "lick g": {
    "body": "Moon",
    "lat": 10.0739,
    "lon": 50.9206,
    "lon_180": 50.92060000000001,
    "feature_type": null,
    "raw_name": "Lick G"
  },
  "lippershey t": {
    "body": "Moon",
    "lat": -25.3013,
    "lon": -11.1325,
    "lon_180": -11.132499999999993,
    "feature_type": null,
    "raw_name": "Lippershey T"
  },
  "longomontanus e": {
    "body": "Moon",
    "lat": -51.3461,
    "lon": -18.1061,
    "lon_180": -18.106099999999998,
    "feature_type": null,
    "raw_name": "Longomontanus E"
  },
  "maskelyne j": {
    "body": "Moon",
    "lat": 3.1351,
    "lon": 32.629,
    "lon_180": 32.62899999999999,
    "feature_type": null,
    "raw_name": "Maskelyne J"
  },
  "lyell c": {
    "body": "Moon",
    "lat": 15.1419,
    "lon": 39.3911,
    "lon_180": 39.391099999999994,
    "feature_type": null,
    "raw_name": "Lyell C"
  },
  "maclear a": {
    "body": "Moon",
    "lat": 11.3042,
    "lon": 18.002,
    "lon_180": 18.00200000000001,
    "feature_type": null,
    "raw_name": "Maclear A"
  },
  "seeliger t": {
    "body": "Moon",
    "lat": -2.203,
    "lon": 4.307,
    "lon_180": 4.306999999999988,
    "feature_type": null,
    "raw_name": "Seeliger T"
  },
  "maginus q": {
    "body": "Moon",
    "lat": -50.8517,
    "lon": -2.32739999999995,
    "lon_180": -2.3273999999999546,
    "feature_type": null,
    "raw_name": "Maginus Q"
  },
  "marco polo g": {
    "body": "Moon",
    "lat": 16.7205,
    "lon": -1.93469999999996,
    "lon_180": -1.934699999999964,
    "feature_type": null,
    "raw_name": "Marco Polo G"
  },
  "marius j": {
    "body": "Moon",
    "lat": 10.4513,
    "lon": -46.9062,
    "lon_180": -46.90620000000001,
    "feature_type": null,
    "raw_name": "Marius J"
  },
  "marius y": {
    "body": "Moon",
    "lat": 9.7799,
    "lon": -50.7738,
    "lon_180": -50.773799999999994,
    "feature_type": null,
    "raw_name": "Marius Y"
  },
  "marth k": {
    "body": "Moon",
    "lat": -29.9609,
    "lon": -28.7724,
    "lon_180": -28.772400000000005,
    "feature_type": null,
    "raw_name": "Marth K"
  },
  "maskelyne b": {
    "body": "Moon",
    "lat": 1.9702,
    "lon": 28.9647,
    "lon_180": 28.964699999999993,
    "feature_type": null,
    "raw_name": "Maskelyne B"
  },
  "maskelyne g": {
    "body": "Moon",
    "lat": 2.2988,
    "lon": 26.6972,
    "lon_180": 26.69720000000001,
    "feature_type": null,
    "raw_name": "Maskelyne G"
  },
  "maupertuis b": {
    "body": "Moon",
    "lat": 51.3715,
    "lon": -26.7999,
    "lon_180": -26.799900000000008,
    "feature_type": null,
    "raw_name": "Maupertuis B"
  },
  "maurolycus p": {
    "body": "Moon",
    "lat": -38.1273,
    "lon": 12.694,
    "lon_180": 12.693999999999988,
    "feature_type": null,
    "raw_name": "Maurolycus P"
  },
  "maury k": {
    "body": "Moon",
    "lat": 39.4738,
    "lon": 41.07,
    "lon_180": 41.06999999999999,
    "feature_type": null,
    "raw_name": "Maury K"
  },
  "mercator e": {
    "body": "Moon",
    "lat": -30.1025,
    "lon": -26.8527,
    "lon_180": -26.8527,
    "feature_type": null,
    "raw_name": "Mercator E"
  },
  "mercurius d": {
    "body": "Moon",
    "lat": 46.1296,
    "lon": 69.0021,
    "lon_180": 69.00209999999998,
    "feature_type": null,
    "raw_name": "Mercurius D"
  },
  "short b": {
    "body": "Moon",
    "lat": -75.8926,
    "lon": -5.17239999999998,
    "lon_180": -5.172399999999982,
    "feature_type": null,
    "raw_name": "Short B"
  },
  "milichius a": {
    "body": "Moon",
    "lat": 9.2544,
    "lon": -32.0665,
    "lon_180": -32.06649999999999,
    "feature_type": null,
    "raw_name": "Milichius A"
  },
  "plinius a": {
    "body": "Moon",
    "lat": 12.9867,
    "lon": 24.1681,
    "lon_180": 24.16810000000001,
    "feature_type": null,
    "raw_name": "Plinius A"
  },
  "miller e": {
    "body": "Moon",
    "lat": -38.9272,
    "lon": 2.7541,
    "lon_180": 2.754099999999994,
    "feature_type": null,
    "raw_name": "Miller E"
  },
  "mosting l": {
    "body": "Moon",
    "lat": -0.6899,
    "lon": -3.43109999999996,
    "lon_180": -3.431099999999958,
    "feature_type": null,
    "raw_name": "Mösting L"
  },
  "mutus j": {
    "body": "Moon",
    "lat": -62.8117,
    "lon": 23.2899,
    "lon_180": 23.28989999999999,
    "feature_type": null,
    "raw_name": "Mutus J"
  },
  "neander m": {
    "body": "Moon",
    "lat": -34.8516,
    "lon": 37.6621,
    "lon_180": 37.66210000000001,
    "feature_type": null,
    "raw_name": "Neander M"
  },
  "nearch m": {
    "body": "Moon",
    "lat": -58.6121,
    "lon": 35.1465,
    "lon_180": 35.1465,
    "feature_type": null,
    "raw_name": "Nearch M"
  },
  "nonius f": {
    "body": "Moon",
    "lat": -35.9272,
    "lon": 3.7357,
    "lon_180": 3.7357000000000085,
    "feature_type": null,
    "raw_name": "Nonius F"
  },
  "opelt e": {
    "body": "Moon",
    "lat": -17.0428,
    "lon": -17.9099,
    "lon_180": -17.909899999999993,
    "feature_type": null,
    "raw_name": "Opelt E"
  },
  "orontius b": {
    "body": "Moon",
    "lat": -39.9647,
    "lon": -3.1626,
    "lon_180": -3.1625999999999976,
    "feature_type": null,
    "raw_name": "Orontius B"
  },
  "parry l": {
    "body": "Moon",
    "lat": -6.3169,
    "lon": -14.6986,
    "lon_180": -14.698599999999999,
    "feature_type": null,
    "raw_name": "Parry L"
  },
  "piazzi c": {
    "body": "Moon",
    "lat": -37.1535,
    "lon": -62.7526,
    "lon_180": -62.7526,
    "feature_type": null,
    "raw_name": "Piazzi C"
  },
  "piazzi smyth w": {
    "body": "Moon",
    "lat": 42.2508,
    "lon": -1.8646,
    "lon_180": -1.8645999999999958,
    "feature_type": null,
    "raw_name": "Piazzi Smyth W"
  },
  "pickering c": {
    "body": "Moon",
    "lat": -1.5415,
    "lon": 6.1526,
    "lon_180": 6.152600000000007,
    "feature_type": null,
    "raw_name": "Pickering C"
  },
  "pons n": {
    "body": "Moon",
    "lat": -25.9523,
    "lon": 22.9205,
    "lon_180": 22.920500000000004,
    "feature_type": null,
    "raw_name": "Pons N"
  },
  "ptolemaeus l": {
    "body": "Moon",
    "lat": -8.8489,
    "lon": -4.01119999999997,
    "lon_180": -4.011199999999974,
    "feature_type": null,
    "raw_name": "Ptolemaeus L"
  },
  "ptolemaeus y": {
    "body": "Moon",
    "lat": -9.3662,
    "lon": 0.7038,
    "lon_180": 0.7038000000000011,
    "feature_type": null,
    "raw_name": "Ptolemaeus Y"
  },
  "puiseux b": {
    "body": "Moon",
    "lat": -25.7041,
    "lon": -38.9745,
    "lon_180": -38.974500000000006,
    "feature_type": null,
    "raw_name": "Puiseux B"
  },
  "pytheas f": {
    "body": "Moon",
    "lat": 16.5503,
    "lon": -19.1425,
    "lon_180": -19.142499999999984,
    "feature_type": null,
    "raw_name": "Pytheas F"
  },
  "rabbi levi n": {
    "body": "Moon",
    "lat": -36.5118,
    "lon": 23.5872,
    "lon_180": 23.587199999999996,
    "feature_type": null,
    "raw_name": "Rabbi Levi N"
  },
  "reaumur c": {
    "body": "Moon",
    "lat": -3.4964,
    "lon": 0.206,
    "lon_180": 0.20599999999998886,
    "feature_type": null,
    "raw_name": "Réaumur C"
  },
  "safarik a": {
    "body": "Moon",
    "lat": 12.5026,
    "lon": 176.9756,
    "lon_180": 176.9756,
    "feature_type": null,
    "raw_name": "Šafařík A"
  },
  "reiner m": {
    "body": "Moon",
    "lat": 8.6223,
    "lon": -56.2463,
    "lon_180": -56.24629999999999,
    "feature_type": null,
    "raw_name": "Reiner M"
  },
  "reiner s": {
    "body": "Moon",
    "lat": 2.2597,
    "lon": -50.8363,
    "lon_180": -50.836299999999994,
    "feature_type": null,
    "raw_name": "Reiner S"
  },
  "rocca m": {
    "body": "Moon",
    "lat": -14.57,
    "lon": -70.8865,
    "lon_180": -70.8865,
    "feature_type": null,
    "raw_name": "Rocca M"
  },
  "plaskett": {
    "body": "Moon",
    "lat": 81.6332,
    "lon": 176.7147,
    "lon_180": 176.7147,
    "feature_type": null,
    "raw_name": "Plaskett"
  },
  "romer w": {
    "body": "Moon",
    "lat": 26.4395,
    "lon": 40.4108,
    "lon_180": 40.410799999999995,
    "feature_type": null,
    "raw_name": "Römer W"
  },
  "saunder t": {
    "body": "Moon",
    "lat": -4.0697,
    "lon": 10.3889,
    "lon_180": 10.388900000000007,
    "feature_type": null,
    "raw_name": "Saunder T"
  },
  "rumker e": {
    "body": "Moon",
    "lat": 38.6377,
    "lon": -57.1389,
    "lon_180": -57.13890000000001,
    "feature_type": null,
    "raw_name": "Rümker E"
  },
  "sabine c": {
    "body": "Moon",
    "lat": 1.0219,
    "lon": 22.9222,
    "lon_180": 22.922200000000004,
    "feature_type": null,
    "raw_name": "Sabine C"
  },
  "santbech d": {
    "body": "Moon",
    "lat": -21.14,
    "lon": 45.1364,
    "lon_180": 45.13640000000001,
    "feature_type": null,
    "raw_name": "Santbech D"
  },
  "santbech k": {
    "body": "Moon",
    "lat": -19.2257,
    "lon": 43.1191,
    "lon_180": 43.1191,
    "feature_type": null,
    "raw_name": "Santbech K"
  },
  "santbech v": {
    "body": "Moon",
    "lat": -24.6789,
    "lon": 39.3304,
    "lon_180": 39.3304,
    "feature_type": null,
    "raw_name": "Santbech V"
  },
  "saunder s": {
    "body": "Moon",
    "lat": -2.3777,
    "lon": 9.743,
    "lon_180": 9.742999999999995,
    "feature_type": null,
    "raw_name": "Saunder S"
  },
  "saussure b": {
    "body": "Moon",
    "lat": -42.2688,
    "lon": -4.01799999999997,
    "lon_180": -4.017999999999972,
    "feature_type": null,
    "raw_name": "Saussure B"
  },
  "scheiner s": {
    "body": "Moon",
    "lat": -58.3861,
    "lon": -25.3341,
    "lon_180": -25.334100000000007,
    "feature_type": null,
    "raw_name": "Scheiner S"
  },
  "schickard l": {
    "body": "Moon",
    "lat": -44.1203,
    "lon": -59.8039,
    "lon_180": -59.8039,
    "feature_type": null,
    "raw_name": "Schickard L"
  },
  "secchi k": {
    "body": "Moon",
    "lat": -0.1743,
    "lon": 45.5002,
    "lon_180": 45.50020000000001,
    "feature_type": null,
    "raw_name": "Secchi K"
  },
  "tacitus m": {
    "body": "Moon",
    "lat": -13.9683,
    "lon": 21.4753,
    "lon_180": 21.475300000000004,
    "feature_type": null,
    "raw_name": "Tacitus M"
  },
  "rozhdestvenskiy": {
    "body": "Moon",
    "lat": 84.9943,
    "lon": -157.8924,
    "lon_180": -157.8924,
    "feature_type": null,
    "raw_name": "Rozhdestvenskiy"
  },
  "von karman": {
    "body": "Moon",
    "lat": -44.4505,
    "lon": 176.2451,
    "lon_180": 176.24509999999998,
    "feature_type": null,
    "raw_name": "Von Kármán"
  },
  "webb n": {
    "body": "Moon",
    "lat": -0.3203,
    "lon": 63.6241,
    "lon_180": 63.6241,
    "feature_type": null,
    "raw_name": "Webb N"
  },
  "w. bond": {
    "body": "Moon",
    "lat": 65.4052,
    "lon": 3.5195,
    "lon_180": 3.5194999999999936,
    "feature_type": null,
    "raw_name": "W. Bond"
  },
  "catena brigitte": {
    "body": "Moon",
    "lat": 18.4954,
    "lon": 27.493,
    "lon_180": 27.492999999999995,
    "feature_type": null,
    "raw_name": "Catena Brigitte"
  },
  "cone": {
    "body": "Moon",
    "lat": -3.6248,
    "lon": -17.4336,
    "lon_180": -17.433600000000013,
    "feature_type": null,
    "raw_name": "Cone"
  },
  "dorsum oppel": {
    "body": "Moon",
    "lat": 19.3139,
    "lon": 52.0869,
    "lon_180": 52.086900000000014,
    "feature_type": null,
    "raw_name": "Dorsum Oppel"
  },
  "rima archytas": {
    "body": "Moon",
    "lat": 53.6286,
    "lon": 2.9985,
    "lon_180": 2.998500000000007,
    "feature_type": null,
    "raw_name": "Rima Archytas"
  },
  "dorsum owen": {
    "body": "Moon",
    "lat": 25.1394,
    "lon": 11.0943,
    "lon_180": 11.094300000000004,
    "feature_type": null,
    "raw_name": "Dorsum Owen"
  },
  "dorsa stille": {
    "body": "Moon",
    "lat": 26.9079,
    "lon": -18.8545,
    "lon_180": -18.8545,
    "feature_type": null,
    "raw_name": "Dorsa Stille"
  },
  "dorsum scilla": {
    "body": "Moon",
    "lat": 32.3442,
    "lon": -59.9958,
    "lon_180": -59.9958,
    "feature_type": null,
    "raw_name": "Dorsum Scilla"
  },
  "rima reaumur": {
    "body": "Moon",
    "lat": -2.8383,
    "lon": 2.4662,
    "lon_180": 2.4661999999999864,
    "feature_type": null,
    "raw_name": "Rima Réaumur"
  },
  "rima agatharchides": {
    "body": "Moon",
    "lat": -20.3784,
    "lon": -28.5643,
    "lon_180": -28.564300000000003,
    "feature_type": null,
    "raw_name": "Rima Agatharchides"
  },
  "dorsa smirnov": {
    "body": "Moon",
    "lat": 26.4082,
    "lon": 25.5294,
    "lon_180": 25.52940000000001,
    "feature_type": null,
    "raw_name": "Dorsa Smirnov"
  },
  "dorsum thera": {
    "body": "Moon",
    "lat": 24.4029,
    "lon": -31.4225,
    "lon_180": -31.422500000000014,
    "feature_type": null,
    "raw_name": "Dorsum Thera"
  },
  "montes jura": {
    "body": "Moon",
    "lat": 47.4935,
    "lon": -36.111,
    "lon_180": -36.11099999999999,
    "feature_type": null,
    "raw_name": "Montes Jura"
  },
  "montes secchi": {
    "body": "Moon",
    "lat": 2.7172,
    "lon": 43.1728,
    "lon_180": 43.172799999999995,
    "feature_type": null,
    "raw_name": "Montes Secchi"
  },
  "planitia descensus": {
    "body": "Moon",
    "lat": 7.1803,
    "lon": -64.1544,
    "lon_180": -64.1544,
    "feature_type": null,
    "raw_name": "Planitia Descensus"
  },
  "vallis rheita": {
    "body": "Moon",
    "lat": -42.5126,
    "lon": 51.654,
    "lon_180": 51.653999999999996,
    "feature_type": null,
    "raw_name": "Vallis Rheita"
  },
  "dorsa sorby": {
    "body": "Moon",
    "lat": 18.6475,
    "lon": 13.6993,
    "lon_180": 13.699299999999994,
    "feature_type": null,
    "raw_name": "Dorsa Sorby"
  },
  "vallis schrodinger": {
    "body": "Moon",
    "lat": -66.5185,
    "lon": 104.8808,
    "lon_180": 104.88080000000002,
    "feature_type": null,
    "raw_name": "Vallis Schrödinger"
  },
  "dorsum buckland": {
    "body": "Moon",
    "lat": 19.4329,
    "lon": 14.2995,
    "lon_180": 14.299499999999995,
    "feature_type": null,
    "raw_name": "Dorsum Buckland"
  },
  "dorsum cushman": {
    "body": "Moon",
    "lat": 1.4171,
    "lon": 49.1935,
    "lon_180": 49.1935,
    "feature_type": null,
    "raw_name": "Dorsum Cushman"
  },
  "dorsum gast": {
    "body": "Moon",
    "lat": 24.3753,
    "lon": 8.7068,
    "lon_180": 8.706799999999987,
    "feature_type": null,
    "raw_name": "Dorsum Gast"
  },
  "dorsa tetyaev": {
    "body": "Moon",
    "lat": 20.025,
    "lon": 64.064,
    "lon_180": 64.064,
    "feature_type": null,
    "raw_name": "Dorsa Tetyaev"
  },
  "dorsum cayeux": {
    "body": "Moon",
    "lat": 0.7628,
    "lon": 51.2204,
    "lon_180": 51.220399999999984,
    "feature_type": null,
    "raw_name": "Dorsum Cayeux"
  },
  "dorsum cloos": {
    "body": "Moon",
    "lat": 1.1495,
    "lon": 90.41,
    "lon_180": 90.40999999999997,
    "feature_type": null,
    "raw_name": "Dorsum Cloos"
  },
  "dorsum heim": {
    "body": "Moon",
    "lat": 32.1961,
    "lon": -29.8335,
    "lon_180": -29.833500000000015,
    "feature_type": null,
    "raw_name": "Dorsum Heim"
  },
  "rima carmen": {
    "body": "Moon",
    "lat": 19.9548,
    "lon": 29.298,
    "lon_180": 29.298000000000002,
    "feature_type": null,
    "raw_name": "Rima Carmen"
  },
  "dorsum higazy": {
    "body": "Moon",
    "lat": 27.9314,
    "lon": -17.4655,
    "lon_180": -17.46549999999999,
    "feature_type": null,
    "raw_name": "Dorsum Higazy"
  },
  "rima ariadaeus": {
    "body": "Moon",
    "lat": 6.4752,
    "lon": 13.4381,
    "lon_180": 13.438099999999991,
    "feature_type": null,
    "raw_name": "Rima Ariadaeus"
  },
  "rima billy": {
    "body": "Moon",
    "lat": -14.7407,
    "lon": -48.0407,
    "lon_180": -48.040700000000015,
    "feature_type": null,
    "raw_name": "Rima Billy"
  },
  "rima messier": {
    "body": "Moon",
    "lat": -0.7565,
    "lon": 44.5454,
    "lon_180": 44.5454,
    "feature_type": null,
    "raw_name": "Rima Messier"
  },
  "catena kurchatov": {
    "body": "Moon",
    "lat": 37.2465,
    "lon": 136.6033,
    "lon_180": 136.6033,
    "feature_type": null,
    "raw_name": "Catena Kurchatov"
  },
  "catena mendeleev": {
    "body": "Moon",
    "lat": 6.6302,
    "lon": 139.2166,
    "lon_180": 139.21659999999997,
    "feature_type": null,
    "raw_name": "Catena Mendeleev"
  },
  "rima zahia": {
    "body": "Moon",
    "lat": 25.0209,
    "lon": -30.4556,
    "lon_180": -30.455600000000004,
    "feature_type": null,
    "raw_name": "Rima Zahia"
  },
  "catena leuschner (gdl)": {
    "body": "Moon",
    "lat": 5.0737,
    "lon": -111.3045,
    "lon_180": -111.3045,
    "feature_type": null,
    "raw_name": "Catena Leuschner (GDL)"
  },
  "catena littrow": {
    "body": "Moon",
    "lat": 22.2308,
    "lon": 29.6114,
    "lon_180": 29.611400000000003,
    "feature_type": null,
    "raw_name": "Catena Littrow"
  },
  "catena lucretius (rnii)": {
    "body": "Moon",
    "lat": -4.0258,
    "lon": -126.4457,
    "lon_180": -126.4457,
    "feature_type": null,
    "raw_name": "Catena Lucretius (RNII)"
  },
  "vallis alpes": {
    "body": "Moon",
    "lat": 49.2088,
    "lon": 3.6314,
    "lon_180": 3.6314000000000135,
    "feature_type": null,
    "raw_name": "Vallis Alpes"
  },
  "vallis baade": {
    "body": "Moon",
    "lat": -45.5533,
    "lon": -77.2298,
    "lon_180": -77.2298,
    "feature_type": null,
    "raw_name": "Vallis Baade"
  },
  "vallis bohr": {
    "body": "Moon",
    "lat": 10.2489,
    "lon": -88.8619,
    "lon_180": -88.8619,
    "feature_type": null,
    "raw_name": "Vallis Bohr"
  },
  "vallis bouvard": {
    "body": "Moon",
    "lat": -38.4497,
    "lon": -82.3204,
    "lon_180": -82.3204,
    "feature_type": null,
    "raw_name": "Vallis Bouvard"
  },
  "vallis capella": {
    "body": "Moon",
    "lat": -7.3918,
    "lon": 35.0385,
    "lon_180": 35.0385,
    "feature_type": null,
    "raw_name": "Vallis Capella"
  },
  "vallis inghirami": {
    "body": "Moon",
    "lat": -43.947,
    "lon": -72.5897,
    "lon_180": -72.5897,
    "feature_type": null,
    "raw_name": "Vallis Inghirami"
  },
  "catena michelson (gird)": {
    "body": "Moon",
    "lat": -0.4422,
    "lon": -113.5812,
    "lon_180": -113.5812,
    "feature_type": null,
    "raw_name": "Catena Michelson (GIRD)"
  },
  "catena pierre": {
    "body": "Moon",
    "lat": 19.7612,
    "lon": -31.8584,
    "lon_180": -31.85839999999999,
    "feature_type": null,
    "raw_name": "Catena Pierre"
  },
  "catena taruntius": {
    "body": "Moon",
    "lat": 3.0431,
    "lon": 48.7064,
    "lon_180": 48.7064,
    "feature_type": null,
    "raw_name": "Catena Taruntius"
  },
  "catena timocharis": {
    "body": "Moon",
    "lat": 29.0949,
    "lon": -13.206,
    "lon_180": -13.205999999999989,
    "feature_type": null,
    "raw_name": "Catena Timocharis"
  },
  "vallis palitzsch": {
    "body": "Moon",
    "lat": -26.1635,
    "lon": 64.6374,
    "lon_180": 64.63740000000001,
    "feature_type": null,
    "raw_name": "Vallis Palitzsch"
  },
  "vallis planck": {
    "body": "Moon",
    "lat": -57.2649,
    "lon": 126.1559,
    "lon_180": 126.15589999999997,
    "feature_type": null,
    "raw_name": "Vallis Planck"
  },
  "catena yuri": {
    "body": "Moon",
    "lat": 24.4081,
    "lon": -30.3816,
    "lon_180": -30.38159999999999,
    "feature_type": null,
    "raw_name": "Catena Yuri"
  },
  "vallis christel": {
    "body": "Moon",
    "lat": 24.5441,
    "lon": 11.0814,
    "lon_180": 11.081400000000002,
    "feature_type": null,
    "raw_name": "Vallis Christel"
  },
  "mons andre": {
    "body": "Moon",
    "lat": 5.1827,
    "lon": 120.5603,
    "lon_180": 120.56029999999998,
    "feature_type": null,
    "raw_name": "Mons André"
  },
  "dorsa barlow": {
    "body": "Moon",
    "lat": 14.0439,
    "lon": 30.5673,
    "lon_180": 30.56729999999999,
    "feature_type": null,
    "raw_name": "Dorsa Barlow"
  },
  "catena sylvester": {
    "body": "Moon",
    "lat": 79.9898,
    "lon": -83.1178,
    "lon_180": -83.1178,
    "feature_type": null,
    "raw_name": "Catena Sylvester"
  },
  "catena humboldt": {
    "body": "Moon",
    "lat": -21.9809,
    "lon": 84.697,
    "lon_180": 84.697,
    "feature_type": null,
    "raw_name": "Catena Humboldt"
  },
  "catena krafft": {
    "body": "Moon",
    "lat": 14.9136,
    "lon": -72.2503,
    "lon_180": -72.2503,
    "feature_type": null,
    "raw_name": "Catena Krafft"
  },
  "catena abulfeda": {
    "body": "Moon",
    "lat": -16.5912,
    "lon": 16.7001,
    "lon_180": 16.700099999999992,
    "feature_type": null,
    "raw_name": "Catena Abulfeda"
  },
  "catena artamonov": {
    "body": "Moon",
    "lat": 26.0916,
    "lon": 105.7718,
    "lon_180": 105.77179999999998,
    "feature_type": null,
    "raw_name": "Catena Artamonov"
  },
  "rima birt": {
    "body": "Moon",
    "lat": -21.4034,
    "lon": -9.28109999999998,
    "lon_180": -9.28109999999998,
    "feature_type": null,
    "raw_name": "Rima Birt"
  },
  "mons agnes": {
    "body": "Moon",
    "lat": 18.6571,
    "lon": 5.3331,
    "lon_180": 5.333100000000002,
    "feature_type": null,
    "raw_name": "Mons Agnes"
  },
  "dorsum bucher": {
    "body": "Moon",
    "lat": 30.7633,
    "lon": -39.5503,
    "lon_180": -39.55029999999999,
    "feature_type": null,
    "raw_name": "Dorsum Bucher"
  },
  "dorsum arduino": {
    "body": "Moon",
    "lat": 24.7734,
    "lon": -36.2652,
    "lon_180": -36.26519999999999,
    "feature_type": null,
    "raw_name": "Dorsum Arduino"
  },
  "dorsum azara": {
    "body": "Moon",
    "lat": 26.8606,
    "lon": 19.1664,
    "lon_180": 19.16640000000001,
    "feature_type": null,
    "raw_name": "Dorsum Azara"
  },
  "catena gregory": {
    "body": "Moon",
    "lat": -0.5919,
    "lon": 129.8025,
    "lon_180": 129.8025,
    "feature_type": null,
    "raw_name": "Catena Gregory"
  },
  "tisserand a": {
    "body": "Moon",
    "lat": 20.3564,
    "lon": 49.4757,
    "lon_180": 49.47570000000002,
    "feature_type": null,
    "raw_name": "Tisserand A"
  },
  "catena davy": {
    "body": "Moon",
    "lat": -10.9847,
    "lon": -6.26560000000001,
    "lon_180": -6.265600000000006,
    "feature_type": null,
    "raw_name": "Catena Davy"
  },
  "catena dziewulski": {
    "body": "Moon",
    "lat": 18.7756,
    "lon": 100.2692,
    "lon_180": 100.26920000000001,
    "feature_type": null,
    "raw_name": "Catena Dziewulski"
  },
  "tisserand b": {
    "body": "Moon",
    "lat": 20.6472,
    "lon": 51.374,
    "lon_180": 51.373999999999995,
    "feature_type": null,
    "raw_name": "Tisserand B"
  },
  "rima cleomedes": {
    "body": "Moon",
    "lat": 27.9776,
    "lon": 56.5145,
    "lon_180": 56.5145,
    "feature_type": null,
    "raw_name": "Rima Cleomedes"
  },
  "abel": {
    "body": "Moon",
    "lat": -34.6257,
    "lon": 85.7762,
    "lon_180": 85.77620000000002,
    "feature_type": null,
    "raw_name": "Abel"
  },
  "tisserand d": {
    "body": "Moon",
    "lat": 21.7564,
    "lon": 49.4656,
    "lon_180": 49.465599999999995,
    "feature_type": null,
    "raw_name": "Tisserand D"
  },
  "dorsa dana": {
    "body": "Moon",
    "lat": 2.2623,
    "lon": 89.5952,
    "lon_180": 89.59519999999998,
    "feature_type": null,
    "raw_name": "Dorsa Dana"
  },
  "dorsum nicol": {
    "body": "Moon",
    "lat": 18.3217,
    "lon": 22.6624,
    "lon_180": 22.66239999999999,
    "feature_type": null,
    "raw_name": "Dorsum Nicol"
  },
  "ryder": {
    "body": "Moon",
    "lat": -43.8747,
    "lon": 143.2994,
    "lon_180": 143.2994,
    "feature_type": null,
    "raw_name": "Ryder"
  },
  "bi sheng": {
    "body": "Moon",
    "lat": 78.345,
    "lon": 148.4587,
    "lon_180": 148.45870000000002,
    "feature_type": null,
    "raw_name": "Bi Sheng"
  },
  "dorsa ewing": {
    "body": "Moon",
    "lat": -11.061,
    "lon": -38.3148,
    "lon_180": -38.31479999999999,
    "feature_type": null,
    "raw_name": "Dorsa Ewing"
  },
  "dorsum niggli": {
    "body": "Moon",
    "lat": 29.0056,
    "lon": -52.2779,
    "lon_180": -52.2779,
    "feature_type": null,
    "raw_name": "Dorsum Niggli"
  },
  "dorsa aldrovandi": {
    "body": "Moon",
    "lat": 23.6059,
    "lon": 28.6537,
    "lon_180": 28.653700000000015,
    "feature_type": null,
    "raw_name": "Dorsa Aldrovandi"
  },
  "vening meinesz t": {
    "body": "Moon",
    "lat": -0.2932,
    "lon": 159.2365,
    "lon_180": 159.23649999999998,
    "feature_type": null,
    "raw_name": "Vening Meinesz T"
  },
  "abbot": {
    "body": "Moon",
    "lat": 5.5562,
    "lon": 54.7431,
    "lon_180": 54.7431,
    "feature_type": null,
    "raw_name": "Abbot"
  },
  "taruntius h": {
    "body": "Moon",
    "lat": 0.3272,
    "lon": 49.8762,
    "lon_180": 49.87619999999998,
    "feature_type": null,
    "raw_name": "Taruntius H"
  },
  "abenezra": {
    "body": "Moon",
    "lat": -20.9936,
    "lon": 11.8907,
    "lon_180": 11.89070000000001,
    "feature_type": null,
    "raw_name": "Abenezra"
  },
  "rimae repsold": {
    "body": "Moon",
    "lat": 50.7365,
    "lon": -80.4587,
    "lon_180": -80.4587,
    "feature_type": null,
    "raw_name": "Rimae Repsold"
  },
  "rima gartner": {
    "body": "Moon",
    "lat": 58.8445,
    "lon": 35.7654,
    "lon_180": 35.7654,
    "feature_type": null,
    "raw_name": "Rima Gärtner"
  },
  "dorsum grabau": {
    "body": "Moon",
    "lat": 29.758,
    "lon": -14.1912,
    "lon_180": -14.19120000000001,
    "feature_type": null,
    "raw_name": "Dorsum Grabau"
  },
  "dorsa argand": {
    "body": "Moon",
    "lat": 28.2916,
    "lon": -40.336,
    "lon_180": -40.33600000000001,
    "feature_type": null,
    "raw_name": "Dorsa Argand"
  },
  "cai lun": {
    "body": "Moon",
    "lat": 80.1166,
    "lon": 113.6639,
    "lon_180": 113.66390000000001,
    "feature_type": null,
    "raw_name": "Cai Lun"
  },
  "abetti": {
    "body": "Moon",
    "lat": 20.1127,
    "lon": 27.8157,
    "lon_180": 27.815699999999993,
    "feature_type": null,
    "raw_name": "Abetti"
  },
  "zhang yuzhe": {
    "body": "Moon",
    "lat": -69.0699,
    "lon": -137.8205,
    "lon_180": -137.8205,
    "feature_type": null,
    "raw_name": "Zhang Yuzhe"
  },
  "abbe": {
    "body": "Moon",
    "lat": -57.5755,
    "lon": 174.775,
    "lon_180": 174.77499999999998,
    "feature_type": null,
    "raw_name": "Abbe"
  },
  "abul wafa": {
    "body": "Moon",
    "lat": 0.9626,
    "lon": 116.6306,
    "lon_180": 116.63060000000002,
    "feature_type": null,
    "raw_name": "Abul Wáfa"
  },
  "hanno k": {
    "body": "Moon",
    "lat": -53.6153,
    "lon": 76.7422,
    "lon_180": 76.74220000000003,
    "feature_type": null,
    "raw_name": "Hanno K"
  },
  "dorsa geikie": {
    "body": "Moon",
    "lat": -4.2057,
    "lon": 52.8285,
    "lon_180": 52.82849999999999,
    "feature_type": null,
    "raw_name": "Dorsa Geikie"
  },
  "maginus p": {
    "body": "Moon",
    "lat": -50.6985,
    "lon": -11.8116,
    "lon_180": -11.811599999999999,
    "feature_type": null,
    "raw_name": "Maginus P"
  },
  "malyy g": {
    "body": "Moon",
    "lat": 21.7183,
    "lon": 107.1077,
    "lon_180": 107.10770000000002,
    "feature_type": null,
    "raw_name": "Malyy G"
  },
  "sechenov c": {
    "body": "Moon",
    "lat": -5.1454,
    "lon": -141.7149,
    "lon_180": -141.7149,
    "feature_type": null,
    "raw_name": "Sechenov C"
  },
  "sharp m": {
    "body": "Moon",
    "lat": 47.3872,
    "lon": -41.4585,
    "lon_180": -41.458500000000015,
    "feature_type": null,
    "raw_name": "Sharp M"
  },
  "stofler n": {
    "body": "Moon",
    "lat": -41.9066,
    "lon": 6.6063,
    "lon_180": 6.6063000000000045,
    "feature_type": null,
    "raw_name": "Stöfler N"
  },
  "sechenov p": {
    "body": "Moon",
    "lat": -9.7491,
    "lon": -144.1977,
    "lon_180": -144.1977,
    "feature_type": null,
    "raw_name": "Sechenov P"
  },
  "segers h": {
    "body": "Moon",
    "lat": 46.5348,
    "lon": 128.9205,
    "lon_180": 128.9205,
    "feature_type": null,
    "raw_name": "Segers H"
  },
  "ptolemaeus g": {
    "body": "Moon",
    "lat": -7.1474,
    "lon": 0.023,
    "lon_180": 0.022999999999996135,
    "feature_type": null,
    "raw_name": "Ptolemaeus G"
  },
  "sharp u": {
    "body": "Moon",
    "lat": 47.4077,
    "lon": -48.681,
    "lon_180": -48.68099999999998,
    "feature_type": null,
    "raw_name": "Sharp U"
  },
  "ptolemaeus t": {
    "body": "Moon",
    "lat": -7.4862,
    "lon": -0.0108,
    "lon_180": -0.01079999999998904,
    "feature_type": null,
    "raw_name": "Ptolemaeus T"
  },
  "sharp v": {
    "body": "Moon",
    "lat": 46.2346,
    "lon": -47.056,
    "lon_180": -47.05599999999998,
    "feature_type": null,
    "raw_name": "Sharp V"
  },
  "shayn b": {
    "body": "Moon",
    "lat": 34.4732,
    "lon": 173.4866,
    "lon_180": 173.4866,
    "feature_type": null,
    "raw_name": "Shayn B"
  },
  "shayn f": {
    "body": "Moon",
    "lat": 32.9704,
    "lon": 175.3927,
    "lon_180": 175.3927,
    "feature_type": null,
    "raw_name": "Shayn F"
  },
  "south d": {
    "body": "Moon",
    "lat": 55.2721,
    "lon": -49.1261,
    "lon_180": -49.12610000000001,
    "feature_type": null,
    "raw_name": "South D"
  },
  "south e": {
    "body": "Moon",
    "lat": 56.695,
    "lon": -53.0033,
    "lon_180": -53.003299999999996,
    "feature_type": null,
    "raw_name": "South E"
  },
  "south f": {
    "body": "Moon",
    "lat": 57.1285,
    "lon": -54.0914,
    "lon_180": -54.09139999999999,
    "feature_type": null,
    "raw_name": "South F"
  },
  "south h": {
    "body": "Moon",
    "lat": 57.2502,
    "lon": -48.1807,
    "lon_180": -48.1807,
    "feature_type": null,
    "raw_name": "South H"
  },
  "south m": {
    "body": "Moon",
    "lat": 55.3143,
    "lon": -51.0197,
    "lon_180": -51.0197,
    "feature_type": null,
    "raw_name": "South M"
  },
  "spallanzani a": {
    "body": "Moon",
    "lat": -46.3163,
    "lon": 25.6178,
    "lon_180": 25.61779999999999,
    "feature_type": null,
    "raw_name": "Spallanzani A"
  },
  "spallanzani d": {
    "body": "Moon",
    "lat": -46.1865,
    "lon": 28.5701,
    "lon_180": 28.570099999999996,
    "feature_type": null,
    "raw_name": "Spallanzani D"
  },
  "stofler o": {
    "body": "Moon",
    "lat": -43.3689,
    "lon": 1.1931,
    "lon_180": 1.193099999999987,
    "feature_type": null,
    "raw_name": "Stöfler O"
  },
  "struve g": {
    "body": "Moon",
    "lat": 23.896,
    "lon": -74.0029,
    "lon_180": -74.0029,
    "feature_type": null,
    "raw_name": "Struve G"
  },
  "struve h": {
    "body": "Moon",
    "lat": 25.1822,
    "lon": -83.3558,
    "lon_180": -83.3558,
    "feature_type": null,
    "raw_name": "Struve H"
  },
  "street r": {
    "body": "Moon",
    "lat": -49.1629,
    "lon": -14.6104,
    "lon_180": -14.610399999999998,
    "feature_type": null,
    "raw_name": "Street R"
  },
  "street m": {
    "body": "Moon",
    "lat": -47.819,
    "lon": -14.577,
    "lon_180": -14.576999999999998,
    "feature_type": null,
    "raw_name": "Street M"
  },
  "taruntius l": {
    "body": "Moon",
    "lat": 5.4568,
    "lon": 44.52,
    "lon_180": 44.52000000000001,
    "feature_type": null,
    "raw_name": "Taruntius L"
  },
  "wilhelm c": {
    "body": "Moon",
    "lat": -41.6039,
    "lon": -19.614,
    "lon_180": -19.614000000000004,
    "feature_type": null,
    "raw_name": "Wilhelm C"
  },
  "tisserand k": {
    "body": "Moon",
    "lat": 19.743,
    "lon": 50.3313,
    "lon_180": 50.3313,
    "feature_type": null,
    "raw_name": "Tisserand K"
  },
  "vening meinesz q": {
    "body": "Moon",
    "lat": -2.5152,
    "lon": 161.0292,
    "lon_180": 161.0292,
    "feature_type": null,
    "raw_name": "Vening Meinesz Q"
  },
  "dorsum zirkel": {
    "body": "Moon",
    "lat": 29.5468,
    "lon": -24.8187,
    "lon_180": -24.818700000000007,
    "feature_type": null,
    "raw_name": "Dorsum Zirkel"
  },
  "titius j": {
    "body": "Moon",
    "lat": -27.5155,
    "lon": 101.5949,
    "lon_180": 101.5949,
    "feature_type": null,
    "raw_name": "Titius J"
  },
  "taruntius k": {
    "body": "Moon",
    "lat": 0.646,
    "lon": 51.5721,
    "lon_180": 51.572100000000006,
    "feature_type": null,
    "raw_name": "Taruntius K"
  },
  "taruntius o": {
    "body": "Moon",
    "lat": 2.2299,
    "lon": 54.3311,
    "lon_180": 54.33109999999999,
    "feature_type": null,
    "raw_name": "Taruntius O"
  },
  "taruntius p": {
    "body": "Moon",
    "lat": 0.0603,
    "lon": 51.5847,
    "lon_180": 51.5847,
    "feature_type": null,
    "raw_name": "Taruntius P"
  },
  "vening meinesz c": {
    "body": "Moon",
    "lat": 1.1773,
    "lon": 163.8389,
    "lon_180": 163.83889999999997,
    "feature_type": null,
    "raw_name": "Vening Meinesz C"
  },
  "vening meinesz w": {
    "body": "Moon",
    "lat": 1.4016,
    "lon": 161.0161,
    "lon_180": 161.0161,
    "feature_type": null,
    "raw_name": "Vening Meinesz W"
  },
  "purbach f": {
    "body": "Moon",
    "lat": -24.5981,
    "lon": -0.0302,
    "lon_180": -0.030200000000007776,
    "feature_type": null,
    "raw_name": "Purbach F"
  },
  "purbach q": {
    "body": "Moon",
    "lat": -25.9232,
    "lon": -0.042,
    "lon_180": -0.04200000000000159,
    "feature_type": null,
    "raw_name": "Purbach Q"
  },
  "regiomontanus k": {
    "body": "Moon",
    "lat": -30.2619,
    "lon": -0.0495,
    "lon_180": -0.04949999999999477,
    "feature_type": null,
    "raw_name": "Regiomontanus K"
  },
  "dorsum guettard": {
    "body": "Moon",
    "lat": -9.9175,
    "lon": -18.264,
    "lon_180": -18.26400000000001,
    "feature_type": null,
    "raw_name": "Dorsum Guettard"
  },
  "rima cauchy": {
    "body": "Moon",
    "lat": 10.4151,
    "lon": 38.0746,
    "lon_180": 38.074600000000004,
    "feature_type": null,
    "raw_name": "Rima Cauchy"
  },
  "rimae posidonius": {
    "body": "Moon",
    "lat": 32.0314,
    "lon": 29.6056,
    "lon_180": 29.60560000000001,
    "feature_type": null,
    "raw_name": "Rimae Posidonius"
  },
  "vallis schroteri": {
    "body": "Moon",
    "lat": 26.1555,
    "lon": -51.5805,
    "lon_180": -51.5805,
    "feature_type": null,
    "raw_name": "Vallis Schröteri"
  },
  "vallis snellius": {
    "body": "Moon",
    "lat": -30.9262,
    "lon": 57.8382,
    "lon_180": 57.8382,
    "feature_type": null,
    "raw_name": "Vallis Snellius"
  },
  "rimae hase": {
    "body": "Moon",
    "lat": -34.7084,
    "lon": 67.7806,
    "lon_180": 67.78059999999999,
    "feature_type": null,
    "raw_name": "Rimae Hase"
  },
  "dorsum termier": {
    "body": "Moon",
    "lat": 11.6251,
    "lon": 57.1532,
    "lon_180": 57.1532,
    "feature_type": null,
    "raw_name": "Dorsum Termier"
  },
  "dorsum von cotta": {
    "body": "Moon",
    "lat": 23.5988,
    "lon": 11.9527,
    "lon_180": 11.952699999999993,
    "feature_type": null,
    "raw_name": "Dorsum Von Cotta"
  },
  "rimae arzachel": {
    "body": "Moon",
    "lat": -18.3077,
    "lon": -1.38319999999999,
    "lon_180": -1.383199999999988,
    "feature_type": null,
    "raw_name": "Rimae Arzachel"
  },
  "rima agricola": {
    "body": "Moon",
    "lat": 29.2477,
    "lon": -53.4204,
    "lon_180": -53.4204,
    "feature_type": null,
    "raw_name": "Rima Agricola"
  },
  "rupes altai": {
    "body": "Moon",
    "lat": -24.3176,
    "lon": 23.124,
    "lon_180": 23.123999999999995,
    "feature_type": null,
    "raw_name": "Rupes Altai"
  },
  "alfraganus": {
    "body": "Moon",
    "lat": -5.4217,
    "lon": 18.9706,
    "lon_180": 18.97059999999999,
    "feature_type": null,
    "raw_name": "Alfraganus"
  },
  "rima rudolf": {
    "body": "Moon",
    "lat": 19.7095,
    "lon": 29.6249,
    "lon_180": 29.624899999999997,
    "feature_type": null,
    "raw_name": "Rima Rudolf"
  },
  "dorsa lister": {
    "body": "Moon",
    "lat": 19.7625,
    "lon": 23.5192,
    "lon_180": 23.519200000000012,
    "feature_type": null,
    "raw_name": "Dorsa Lister"
  },
  "dorsa mawson": {
    "body": "Moon",
    "lat": -7.7748,
    "lon": 52.4834,
    "lon_180": 52.48340000000002,
    "feature_type": null,
    "raw_name": "Dorsa Mawson"
  },
  "dorsa rubey": {
    "body": "Moon",
    "lat": -9.8791,
    "lon": -42.3624,
    "lon_180": -42.36240000000001,
    "feature_type": null,
    "raw_name": "Dorsa Rubey"
  },
  "catena sumner": {
    "body": "Moon",
    "lat": 37.8917,
    "lon": 111.9101,
    "lon_180": 111.9101,
    "feature_type": null,
    "raw_name": "Catena Sumner"
  },
  "rima schroter": {
    "body": "Moon",
    "lat": 1.2752,
    "lon": -6.24609999999996,
    "lon_180": -6.246099999999956,
    "feature_type": null,
    "raw_name": "Rima Schröter"
  },
  "rima artsimovich": {
    "body": "Moon",
    "lat": 26.6632,
    "lon": -38.6457,
    "lon_180": -38.645700000000005,
    "feature_type": null,
    "raw_name": "Rima Artsimovich"
  },
  "rima bradley": {
    "body": "Moon",
    "lat": 24.1736,
    "lon": -0.6039,
    "lon_180": -0.6039000000000101,
    "feature_type": null,
    "raw_name": "Rima Bradley"
  },
  "rima draper": {
    "body": "Moon",
    "lat": 17.3691,
    "lon": -25.3672,
    "lon_180": -25.367199999999997,
    "feature_type": null,
    "raw_name": "Rima Draper"
  },
  "rima brayley": {
    "body": "Moon",
    "lat": 22.2978,
    "lon": -36.3528,
    "lon_180": -36.3528,
    "feature_type": null,
    "raw_name": "Rima Brayley"
  },
  "rima calippus": {
    "body": "Moon",
    "lat": 37.0316,
    "lon": 12.6597,
    "lon_180": 12.659699999999987,
    "feature_type": null,
    "raw_name": "Rima Calippus"
  },
  "rima cardanus": {
    "body": "Moon",
    "lat": 11.3175,
    "lon": -71.1375,
    "lon_180": -71.1375,
    "feature_type": null,
    "raw_name": "Rima Cardanus"
  },
  "rima cleopatra": {
    "body": "Moon",
    "lat": 30.0315,
    "lon": -53.8007,
    "lon_180": -53.800700000000006,
    "feature_type": null,
    "raw_name": "Rima Cleopatra"
  },
  "rima conon": {
    "body": "Moon",
    "lat": 18.6921,
    "lon": 1.853,
    "lon_180": 1.8530000000000086,
    "feature_type": null,
    "raw_name": "Rima Conon"
  },
  "rima dawes": {
    "body": "Moon",
    "lat": 17.5776,
    "lon": 26.6304,
    "lon_180": 26.63040000000001,
    "feature_type": null,
    "raw_name": "Rima Dawes"
  },
  "rimae apollonius": {
    "body": "Moon",
    "lat": 4.3881,
    "lon": 54.3306,
    "lon_180": 54.330600000000004,
    "feature_type": null,
    "raw_name": "Rimae Apollonius"
  },
  "rima delisle": {
    "body": "Moon",
    "lat": 30.873,
    "lon": -32.3482,
    "lon_180": -32.34819999999999,
    "feature_type": null,
    "raw_name": "Rima Delisle"
  },
  "rimae palmieri": {
    "body": "Moon",
    "lat": -27.8346,
    "lon": -47.17,
    "lon_180": -47.170000000000016,
    "feature_type": null,
    "raw_name": "Rimae Palmieri"
  },
  "rimae gutenberg": {
    "body": "Moon",
    "lat": -4.4221,
    "lon": 36.4186,
    "lon_180": 36.4186,
    "feature_type": null,
    "raw_name": "Rimae Gutenberg"
  },
  "aloha": {
    "body": "Moon",
    "lat": 29.7926,
    "lon": -53.8796,
    "lon_180": -53.87960000000001,
    "feature_type": null,
    "raw_name": "Aloha"
  },
  "rupes liebig": {
    "body": "Moon",
    "lat": -25.137,
    "lon": -45.9233,
    "lon_180": -45.92329999999998,
    "feature_type": null,
    "raw_name": "Rupes Liebig"
  },
  "rupes mercator": {
    "body": "Moon",
    "lat": -30.2075,
    "lon": -22.8425,
    "lon_180": -22.8425,
    "feature_type": null,
    "raw_name": "Rupes Mercator"
  },
  "rupes recta": {
    "body": "Moon",
    "lat": -21.6748,
    "lon": -7.70189999999997,
    "lon_180": -7.701899999999966,
    "feature_type": null,
    "raw_name": "Rupes Recta"
  },
  "rima hadley": {
    "body": "Moon",
    "lat": 25.7159,
    "lon": 3.1467,
    "lon_180": 3.14670000000001,
    "feature_type": null,
    "raw_name": "Rima Hadley"
  },
  "rima diophantus": {
    "body": "Moon",
    "lat": 28.7038,
    "lon": -33.6734,
    "lon_180": -33.673400000000015,
    "feature_type": null,
    "raw_name": "Rima Diophantus"
  },
  "rimae menelaus": {
    "body": "Moon",
    "lat": 17.1047,
    "lon": 17.7724,
    "lon_180": 17.772400000000005,
    "feature_type": null,
    "raw_name": "Rimae Menelaus"
  },
  "rima marius": {
    "body": "Moon",
    "lat": 16.3723,
    "lon": -49.5418,
    "lon_180": -49.541799999999995,
    "feature_type": null,
    "raw_name": "Rima Marius"
  },
  "rima hansteen": {
    "body": "Moon",
    "lat": -12.0882,
    "lon": -52.9922,
    "lon_180": -52.9922,
    "feature_type": null,
    "raw_name": "Rima Hansteen"
  },
  "rima hesiodus": {
    "body": "Moon",
    "lat": -30.5396,
    "lon": -21.8493,
    "lon_180": -21.8493,
    "feature_type": null,
    "raw_name": "Rima Hesiodus"
  },
  "rimae hevelius": {
    "body": "Moon",
    "lat": 0.8091,
    "lon": -66.3766,
    "lon_180": -66.3766,
    "feature_type": null,
    "raw_name": "Rimae Hevelius"
  },
  "alhazen": {
    "body": "Moon",
    "lat": 15.9148,
    "lon": 71.8279,
    "lon_180": 71.8279,
    "feature_type": null,
    "raw_name": "Alhazen"
  },
  "rima mairan": {
    "body": "Moon",
    "lat": 38.2789,
    "lon": -46.8273,
    "lon_180": -46.82730000000001,
    "feature_type": null,
    "raw_name": "Rima Mairan"
  },
  "rima marcello": {
    "body": "Moon",
    "lat": 18.5895,
    "lon": 27.7389,
    "lon_180": 27.7389,
    "feature_type": null,
    "raw_name": "Rima Marcello"
  },
  "promontorium kelvin": {
    "body": "Moon",
    "lat": -26.9482,
    "lon": -33.4453,
    "lon_180": -33.4453,
    "feature_type": null,
    "raw_name": "Promontorium Kelvin"
  },
  "rimae maupertuis": {
    "body": "Moon",
    "lat": 51.2372,
    "lon": -22.821,
    "lon_180": -22.820999999999998,
    "feature_type": null,
    "raw_name": "Rimae Maupertuis"
  },
  "rima galilaei": {
    "body": "Moon",
    "lat": 12.9081,
    "lon": -59.2039,
    "lon_180": -59.203900000000004,
    "feature_type": null,
    "raw_name": "Rima Galilaei"
  },
  "aliacensis": {
    "body": "Moon",
    "lat": -30.5952,
    "lon": 5.1308,
    "lon_180": 5.130799999999994,
    "feature_type": null,
    "raw_name": "Aliacensis"
  },
  "rupes boris": {
    "body": "Moon",
    "lat": 30.6738,
    "lon": -33.5994,
    "lon_180": -33.5994,
    "feature_type": null,
    "raw_name": "Rupes Boris"
  },
  "rupes cauchy": {
    "body": "Moon",
    "lat": 9.3109,
    "lon": 37.0759,
    "lon_180": 37.07589999999999,
    "feature_type": null,
    "raw_name": "Rupes Cauchy"
  },
  "almanon": {
    "body": "Moon",
    "lat": -16.845,
    "lon": 15.1351,
    "lon_180": 15.135099999999994,
    "feature_type": null,
    "raw_name": "Almanon"
  },
  "rima krieger": {
    "body": "Moon",
    "lat": 29.2938,
    "lon": -46.2626,
    "lon_180": -46.26259999999999,
    "feature_type": null,
    "raw_name": "Rima Krieger"
  },
  "alpetragius": {
    "body": "Moon",
    "lat": -16.048,
    "lon": -4.5104,
    "lon_180": -4.510400000000004,
    "feature_type": null,
    "raw_name": "Alpetragius"
  },
  "alphonsus": {
    "body": "Moon",
    "lat": -13.3879,
    "lon": -2.84629999999999,
    "lon_180": -2.846299999999985,
    "feature_type": null,
    "raw_name": "Alphonsus"
  },
  "rimae alphonsus": {
    "body": "Moon",
    "lat": -13.4032,
    "lon": -1.94279999999998,
    "lon_180": -1.942799999999977,
    "feature_type": null,
    "raw_name": "Rimae Alphonsus"
  },
  "rupes kelvin": {
    "body": "Moon",
    "lat": -28.0281,
    "lon": -33.1738,
    "lon_180": -33.1738,
    "feature_type": null,
    "raw_name": "Rupes Kelvin"
  },
  "alter": {
    "body": "Moon",
    "lat": 18.7401,
    "lon": -107.7969,
    "lon_180": -107.7969,
    "feature_type": null,
    "raw_name": "Alter"
  },
  "rima euler": {
    "body": "Moon",
    "lat": 21.0842,
    "lon": -30.3121,
    "lon_180": -30.312099999999987,
    "feature_type": null,
    "raw_name": "Rima Euler"
  },
  "rima flammarion": {
    "body": "Moon",
    "lat": -2.3842,
    "lon": -4.67320000000001,
    "lon_180": -4.6732000000000085,
    "feature_type": null,
    "raw_name": "Rima Flammarion"
  },
  "rima furnerius": {
    "body": "Moon",
    "lat": -35.295,
    "lon": 61.1717,
    "lon_180": 61.17169999999999,
    "feature_type": null,
    "raw_name": "Rima Furnerius"
  },
  "rima g. bond": {
    "body": "Moon",
    "lat": 32.8578,
    "lon": 35.2509,
    "lon_180": 35.2509,
    "feature_type": null,
    "raw_name": "Rima G. Bond"
  },
  "rima hyginus": {
    "body": "Moon",
    "lat": 7.6164,
    "lon": 6.7746,
    "lon_180": 6.774599999999992,
    "feature_type": null,
    "raw_name": "Rima Hyginus"
  },
  "rima jansen": {
    "body": "Moon",
    "lat": 14.4951,
    "lon": 29.5115,
    "lon_180": 29.511500000000012,
    "feature_type": null,
    "raw_name": "Rima Jansen"
  },
  "rima gay-lussac": {
    "body": "Moon",
    "lat": 13.1772,
    "lon": -22.3273,
    "lon_180": -22.327300000000008,
    "feature_type": null,
    "raw_name": "Rima Gay-Lussac"
  },
  "artemis": {
    "body": "Moon",
    "lat": 25.0326,
    "lon": -25.3552,
    "lon_180": -25.355199999999996,
    "feature_type": null,
    "raw_name": "Artemis"
  },
  "rima t. mayer": {
    "body": "Moon",
    "lat": 13.2584,
    "lon": -31.3709,
    "lon_180": -31.370900000000006,
    "feature_type": null,
    "raw_name": "Rima T. Mayer"
  },
  "rima vladimir": {
    "body": "Moon",
    "lat": 25.1957,
    "lon": -0.7539,
    "lon_180": -0.7538999999999874,
    "feature_type": null,
    "raw_name": "Rima Vladimir"
  },
  "artem'ev": {
    "body": "Moon",
    "lat": 10.3953,
    "lon": -145.2222,
    "lon_180": -145.2222,
    "feature_type": null,
    "raw_name": "Artem'ev"
  },
  "rupes toscanelli": {
    "body": "Moon",
    "lat": 26.9708,
    "lon": -47.5346,
    "lon_180": -47.53460000000001,
    "feature_type": null,
    "raw_name": "Rupes Toscanelli"
  },
  "rima milichius": {
    "body": "Moon",
    "lat": 8.0294,
    "lon": -32.8654,
    "lon_180": -32.865399999999994,
    "feature_type": null,
    "raw_name": "Rima Milichius"
  },
  "rima oppolzer": {
    "body": "Moon",
    "lat": -1.5338,
    "lon": 1.2757,
    "lon_180": 1.2757000000000005,
    "feature_type": null,
    "raw_name": "Rima Oppolzer"
  },
  "rima reiko": {
    "body": "Moon",
    "lat": 18.5524,
    "lon": 27.7106,
    "lon_180": 27.7106,
    "feature_type": null,
    "raw_name": "Rima Reiko"
  },
  "rimae doppelmayer": {
    "body": "Moon",
    "lat": -26.2345,
    "lon": -44.5293,
    "lon_180": -44.529300000000006,
    "feature_type": null,
    "raw_name": "Rimae Doppelmayer"
  },
  "rimae focas": {
    "body": "Moon",
    "lat": -27.6803,
    "lon": -97.5415,
    "lon_180": -97.5415,
    "feature_type": null,
    "raw_name": "Rimae Focas"
  },
  "banting": {
    "body": "Moon",
    "lat": 26.5814,
    "lon": 16.4284,
    "lon_180": 16.42840000000001,
    "feature_type": null,
    "raw_name": "Banting"
  },
  "rima wan-yu": {
    "body": "Moon",
    "lat": 19.9817,
    "lon": -31.4332,
    "lon_180": -31.4332,
    "feature_type": null,
    "raw_name": "Rima Wan-Yu"
  },
  "rimae de gasparis": {
    "body": "Moon",
    "lat": -24.9874,
    "lon": -50.3034,
    "lon_180": -50.30340000000001,
    "feature_type": null,
    "raw_name": "Rimae de Gasparis"
  },
  "rimae sirsalis": {
    "body": "Moon",
    "lat": -15.0053,
    "lon": -61.3564,
    "lon_180": -61.35640000000001,
    "feature_type": null,
    "raw_name": "Rimae Sirsalis"
  },
  "rimae fresnel": {
    "body": "Moon",
    "lat": 28.1116,
    "lon": 3.7277,
    "lon_180": 3.7276999999999987,
    "feature_type": null,
    "raw_name": "Rimae Fresnel"
  },
  "rimae aristarchus": {
    "body": "Moon",
    "lat": 27.5233,
    "lon": -47.2483,
    "lon_180": -47.2483,
    "feature_type": null,
    "raw_name": "Rimae Aristarchus"
  },
  "rimae boscovich": {
    "body": "Moon",
    "lat": 9.8711,
    "lon": 11.2653,
    "lon_180": 11.265299999999996,
    "feature_type": null,
    "raw_name": "Rimae Boscovich"
  },
  "mons ardeshir": {
    "body": "Moon",
    "lat": 5.0259,
    "lon": 121.0417,
    "lon_180": 121.04169999999999,
    "feature_type": null,
    "raw_name": "Mons Ardeshir"
  },
  "rimae mersenius": {
    "body": "Moon",
    "lat": -20.6944,
    "lon": -46.5288,
    "lon_180": -46.52879999999999,
    "feature_type": null,
    "raw_name": "Rimae Mersenius"
  },
  "ameghino": {
    "body": "Moon",
    "lat": 3.2995,
    "lon": 57.037,
    "lon_180": 57.037000000000006,
    "feature_type": null,
    "raw_name": "Ameghino"
  },
  "rimae archimedes": {
    "body": "Moon",
    "lat": 26.3359,
    "lon": -4.52819999999997,
    "lon_180": -4.52819999999997,
    "feature_type": null,
    "raw_name": "Rimae Archimedes"
  },
  "rimae atlas": {
    "body": "Moon",
    "lat": 46.819,
    "lon": 44.4177,
    "lon_180": 44.417699999999996,
    "feature_type": null,
    "raw_name": "Rimae Atlas"
  },
  "rimae gassendi": {
    "body": "Moon",
    "lat": -17.4706,
    "lon": -39.8706,
    "lon_180": -39.870599999999996,
    "feature_type": null,
    "raw_name": "Rimae Gassendi"
  },
  "amici": {
    "body": "Moon",
    "lat": -10.062,
    "lon": -172.227,
    "lon_180": -172.227,
    "feature_type": null,
    "raw_name": "Amici"
  },
  "ammonius": {
    "body": "Moon",
    "lat": -8.5209,
    "lon": -0.826,
    "lon_180": -0.8259999999999934,
    "feature_type": null,
    "raw_name": "Ammonius"
  },
  "rimae bode": {
    "body": "Moon",
    "lat": 9.5423,
    "lon": -3.22199999999998,
    "lon_180": -3.22199999999998,
    "feature_type": null,
    "raw_name": "Rimae Bode"
  },
  "barkla": {
    "body": "Moon",
    "lat": -10.668,
    "lon": 67.2187,
    "lon_180": 67.21870000000001,
    "feature_type": null,
    "raw_name": "Barkla"
  },
  "ball": {
    "body": "Moon",
    "lat": -35.9228,
    "lon": -8.39419999999996,
    "lon_180": -8.394199999999955,
    "feature_type": null,
    "raw_name": "Ball"
  },
  "rimae gerard": {
    "body": "Moon",
    "lat": 45.5396,
    "lon": -84.3611,
    "lon_180": -84.3611,
    "feature_type": null,
    "raw_name": "Rimae Gerard"
  },
  "balmer": {
    "body": "Moon",
    "lat": -20.2715,
    "lon": 70.2247,
    "lon_180": 70.22469999999998,
    "feature_type": null,
    "raw_name": "Balmer"
  },
  "rimae burg": {
    "body": "Moon",
    "lat": 44.7047,
    "lon": 25.2742,
    "lon_180": 25.274200000000008,
    "feature_type": null,
    "raw_name": "Rimae Bürg"
  },
  "rimae chacornac": {
    "body": "Moon",
    "lat": 29.0099,
    "lon": 31.2417,
    "lon_180": 31.24170000000001,
    "feature_type": null,
    "raw_name": "Rimae Chacornac"
  },
  "banachiewicz": {
    "body": "Moon",
    "lat": 5.277,
    "lon": 80.0097,
    "lon_180": 80.00970000000001,
    "feature_type": null,
    "raw_name": "Banachiewicz"
  },
  "bancroft": {
    "body": "Moon",
    "lat": 28.0659,
    "lon": -6.43389999999999,
    "lon_180": -6.433899999999994,
    "feature_type": null,
    "raw_name": "Bancroft"
  },
  "rimae daniell": {
    "body": "Moon",
    "lat": 37.5293,
    "lon": 24.3277,
    "lon_180": 24.327699999999993,
    "feature_type": null,
    "raw_name": "Rimae Daniell"
  },
  "barbier": {
    "body": "Moon",
    "lat": -23.8503,
    "lon": 157.9337,
    "lon_180": 157.9337,
    "feature_type": null,
    "raw_name": "Barbier"
  },
  "rima suess": {
    "body": "Moon",
    "lat": 6.622,
    "lon": -47.1404,
    "lon_180": -47.1404,
    "feature_type": null,
    "raw_name": "Rima Suess"
  },
  "rima yangel'": {
    "body": "Moon",
    "lat": 16.6242,
    "lon": 4.7935,
    "lon_180": 4.7934999999999945,
    "feature_type": null,
    "raw_name": "Rima Yangel'"
  },
  "rima sharp": {
    "body": "Moon",
    "lat": 46.0182,
    "lon": -50.3612,
    "lon_180": -50.3612,
    "feature_type": null,
    "raw_name": "Rima Sharp"
  },
  "rima sheepshanks": {
    "body": "Moon",
    "lat": 58.2755,
    "lon": 23.6885,
    "lon_180": 23.688500000000005,
    "feature_type": null,
    "raw_name": "Rima Sheepshanks"
  },
  "rimae goclenius": {
    "body": "Moon",
    "lat": -7.8353,
    "lon": 42.8794,
    "lon_180": 42.879400000000004,
    "feature_type": null,
    "raw_name": "Rimae Goclenius"
  },
  "rimae grimaldi": {
    "body": "Moon",
    "lat": -6.1817,
    "lon": -63.8978,
    "lon_180": -63.89779999999999,
    "feature_type": null,
    "raw_name": "Rimae Grimaldi"
  },
  "louville": {
    "body": "Moon",
    "lat": 44.1248,
    "lon": -46.0395,
    "lon_180": -46.039500000000004,
    "feature_type": null,
    "raw_name": "Louville"
  },
  "arago": {
    "body": "Moon",
    "lat": 6.1487,
    "lon": 21.4261,
    "lon_180": 21.42609999999999,
    "feature_type": null,
    "raw_name": "Arago"
  },
  "aratus": {
    "body": "Moon",
    "lat": 23.5793,
    "lon": 4.5052,
    "lon_180": 4.505200000000002,
    "feature_type": null,
    "raw_name": "Aratus"
  },
  "rimae darwin": {
    "body": "Moon",
    "lat": -19.8416,
    "lon": -66.6562,
    "lon_180": -66.6562,
    "feature_type": null,
    "raw_name": "Rimae Darwin"
  },
  "rimae parry": {
    "body": "Moon",
    "lat": -8.0671,
    "lon": -16.518,
    "lon_180": -16.518,
    "feature_type": null,
    "raw_name": "Rimae Parry"
  },
  "archimedes": {
    "body": "Moon",
    "lat": 29.7172,
    "lon": -3.99309999999997,
    "lon_180": -3.99309999999997,
    "feature_type": null,
    "raw_name": "Archimedes"
  },
  "rimae herigonius": {
    "body": "Moon",
    "lat": -13.9216,
    "lon": -36.7529,
    "lon_180": -36.75290000000001,
    "feature_type": null,
    "raw_name": "Rimae Herigonius"
  },
  "rimae janssen": {
    "body": "Moon",
    "lat": -45.7988,
    "lon": 39.2604,
    "lon_180": 39.260400000000004,
    "feature_type": null,
    "raw_name": "Rimae Janssen"
  },
  "rimae pitatus": {
    "body": "Moon",
    "lat": -29.8352,
    "lon": -13.6234,
    "lon_180": -13.623400000000004,
    "feature_type": null,
    "raw_name": "Rimae Pitatus"
  },
  "archytas": {
    "body": "Moon",
    "lat": 58.8662,
    "lon": 4.9925,
    "lon_180": 4.992500000000007,
    "feature_type": null,
    "raw_name": "Archytas"
  },
  "barnard": {
    "body": "Moon",
    "lat": -29.7883,
    "lon": 85.9489,
    "lon_180": 85.94889999999998,
    "feature_type": null,
    "raw_name": "Barnard"
  },
  "stadius l": {
    "body": "Moon",
    "lat": 10.1225,
    "lon": -12.9565,
    "lon_180": -12.956500000000005,
    "feature_type": null,
    "raw_name": "Stadius L"
  },
  "barocius": {
    "body": "Moon",
    "lat": -44.9791,
    "lon": 16.8058,
    "lon_180": 16.805800000000005,
    "feature_type": null,
    "raw_name": "Barocius"
  },
  "rimae petavius": {
    "body": "Moon",
    "lat": -25.234,
    "lon": 60.4837,
    "lon_180": 60.4837,
    "feature_type": null,
    "raw_name": "Rimae Petavius"
  },
  "liouville": {
    "body": "Moon",
    "lat": 2.7278,
    "lon": 73.5659,
    "lon_180": 73.5659,
    "feature_type": null,
    "raw_name": "Liouville"
  },
  "barringer": {
    "body": "Moon",
    "lat": -28.2181,
    "lon": -150.4306,
    "lon_180": -150.4306,
    "feature_type": null,
    "raw_name": "Barringer"
  },
  "rimae kopff": {
    "body": "Moon",
    "lat": -14.6813,
    "lon": -88.1048,
    "lon_180": -88.1048,
    "feature_type": null,
    "raw_name": "Rimae Kopff"
  },
  "rimae littrow": {
    "body": "Moon",
    "lat": 22.4678,
    "lon": 30.4736,
    "lon_180": 30.473600000000005,
    "feature_type": null,
    "raw_name": "Rimae Littrow"
  },
  "rimae maclear": {
    "body": "Moon",
    "lat": 12.2308,
    "lon": 19.899,
    "lon_180": 19.899,
    "feature_type": null,
    "raw_name": "Rimae Maclear"
  },
  "rimae maestlin": {
    "body": "Moon",
    "lat": 2.8802,
    "lon": -40.4828,
    "lon_180": -40.4828,
    "feature_type": null,
    "raw_name": "Rimae Maestlin"
  },
  "rimae plinius": {
    "body": "Moon",
    "lat": 17.0508,
    "lon": 23.1415,
    "lon_180": 23.141500000000008,
    "feature_type": null,
    "raw_name": "Rimae Plinius"
  },
  "mare humboldtianum": {
    "body": "Moon",
    "lat": 56.9221,
    "lon": 81.5428,
    "lon_180": 81.5428,
    "feature_type": null,
    "raw_name": "Mare Humboldtianum"
  },
  "bartels": {
    "body": "Moon",
    "lat": 24.5065,
    "lon": -89.8452,
    "lon_180": -89.8452,
    "feature_type": null,
    "raw_name": "Bartels"
  },
  "bouguer": {
    "body": "Moon",
    "lat": 52.3224,
    "lon": -35.8228,
    "lon_180": -35.8228,
    "feature_type": null,
    "raw_name": "Bouguer"
  },
  "rimae opelt": {
    "body": "Moon",
    "lat": -13.6432,
    "lon": -18.1382,
    "lon_180": -18.138200000000012,
    "feature_type": null,
    "raw_name": "Rimae Opelt"
  },
  "rimae sulpicius gallus": {
    "body": "Moon",
    "lat": 20.654,
    "lon": 9.9913,
    "lon_180": 9.991299999999995,
    "feature_type": null,
    "raw_name": "Rimae Sulpicius Gallus"
  },
  "mons vitruvius": {
    "body": "Moon",
    "lat": 19.3335,
    "lon": 30.7353,
    "lon_180": 30.735299999999995,
    "feature_type": null,
    "raw_name": "Mons Vitruvius"
  },
  "barrow": {
    "body": "Moon",
    "lat": 71.2844,
    "lon": 7.586,
    "lon_180": 7.586000000000013,
    "feature_type": null,
    "raw_name": "Barrow"
  },
  "rimae hippalus": {
    "body": "Moon",
    "lat": -25.5976,
    "lon": -29.3571,
    "lon_180": -29.357100000000003,
    "feature_type": null,
    "raw_name": "Rimae Hippalus"
  },
  "rimae hypatia": {
    "body": "Moon",
    "lat": -0.3399,
    "lon": 22.7769,
    "lon_180": 22.776900000000012,
    "feature_type": null,
    "raw_name": "Rimae Hypatia"
  },
  "bonpland": {
    "body": "Moon",
    "lat": -8.3755,
    "lon": -17.3341,
    "lon_180": -17.334100000000007,
    "feature_type": null,
    "raw_name": "Bonpland"
  },
  "rimae plato": {
    "body": "Moon",
    "lat": 50.8791,
    "lon": -3.01509999999996,
    "lon_180": -3.0150999999999613,
    "feature_type": null,
    "raw_name": "Rimae Plato"
  },
  "mare marginis": {
    "body": "Moon",
    "lat": 12.7019,
    "lon": 86.5153,
    "lon_180": 86.51530000000002,
    "feature_type": null,
    "raw_name": "Mare Marginis"
  },
  "mons argaeus": {
    "body": "Moon",
    "lat": 19.3309,
    "lon": 29.0068,
    "lon_180": 29.0068,
    "feature_type": null,
    "raw_name": "Mons Argaeus"
  },
  "boss": {
    "body": "Moon",
    "lat": 45.748,
    "lon": 88.6799,
    "lon_180": 88.67989999999998,
    "feature_type": null,
    "raw_name": "Boss"
  },
  "rimae pettit": {
    "body": "Moon",
    "lat": -25.2189,
    "lon": -93.6296,
    "lon_180": -93.6296,
    "feature_type": null,
    "raw_name": "Rimae Pettit"
  },
  "rimae ramsden": {
    "body": "Moon",
    "lat": -32.9279,
    "lon": -31.3218,
    "lon_180": -31.321799999999996,
    "feature_type": null,
    "raw_name": "Rimae Ramsden"
  },
  "argelander": {
    "body": "Moon",
    "lat": -16.5493,
    "lon": 5.8011,
    "lon_180": 5.801099999999991,
    "feature_type": null,
    "raw_name": "Argelander"
  },
  "ariadaeus": {
    "body": "Moon",
    "lat": 4.5549,
    "lon": 17.2763,
    "lon_180": 17.276299999999992,
    "feature_type": null,
    "raw_name": "Ariadaeus"
  },
  "palus epidemiarum": {
    "body": "Moon",
    "lat": -31.9959,
    "lon": -27.5433,
    "lon_180": -27.543299999999988,
    "feature_type": null,
    "raw_name": "Palus Epidemiarum"
  },
  "aristarchus": {
    "body": "Moon",
    "lat": 23.7299,
    "lon": -47.4901,
    "lon_180": -47.490099999999984,
    "feature_type": null,
    "raw_name": "Aristarchus"
  },
  "mare fecunditatis": {
    "body": "Moon",
    "lat": -7.835,
    "lon": 53.6691,
    "lon_180": 53.669100000000014,
    "feature_type": null,
    "raw_name": "Mare Fecunditatis"
  },
  "aldrin": {
    "body": "Moon",
    "lat": 1.4059,
    "lon": 22.0899,
    "lon_180": 22.0899,
    "feature_type": null,
    "raw_name": "Aldrin"
  },
  "alan": {
    "body": "Moon",
    "lat": -10.9331,
    "lon": -6.17089999999996,
    "lon_180": -6.1708999999999605,
    "feature_type": null,
    "raw_name": "Alan"
  },
  "aristoteles": {
    "body": "Moon",
    "lat": 50.243,
    "lon": 17.32,
    "lon_180": 17.319999999999993,
    "feature_type": null,
    "raw_name": "Aristoteles"
  },
  "rimae taruntius": {
    "body": "Moon",
    "lat": 5.8258,
    "lon": 46.8276,
    "lon_180": 46.82759999999999,
    "feature_type": null,
    "raw_name": "Rimae Taruntius"
  },
  "rimae theaetetus": {
    "body": "Moon",
    "lat": 33.0351,
    "lon": 5.8665,
    "lon_180": 5.866500000000002,
    "feature_type": null,
    "raw_name": "Rimae Theaetetus"
  },
  "armstrong": {
    "body": "Moon",
    "lat": 1.3535,
    "lon": 24.9437,
    "lon_180": 24.943700000000007,
    "feature_type": null,
    "raw_name": "Armstrong"
  },
  "rimae zupus": {
    "body": "Moon",
    "lat": -15.4637,
    "lon": -53.7608,
    "lon_180": -53.7608,
    "feature_type": null,
    "raw_name": "Rimae Zupus"
  },
  "aristillus": {
    "body": "Moon",
    "lat": 33.8808,
    "lon": 1.2075,
    "lon_180": 1.2075000000000102,
    "feature_type": null,
    "raw_name": "Aristillus"
  },
  "arminski": {
    "body": "Moon",
    "lat": -16.3628,
    "lon": 154.2162,
    "lon_180": 154.21619999999996,
    "feature_type": null,
    "raw_name": "Armiński"
  },
  "alekhin": {
    "body": "Moon",
    "lat": -67.944,
    "lon": -131.8524,
    "lon_180": -131.8524,
    "feature_type": null,
    "raw_name": "Alekhin"
  },
  "rimae ritter": {
    "body": "Moon",
    "lat": 3.501,
    "lon": 17.9678,
    "lon_180": 17.96780000000001,
    "feature_type": null,
    "raw_name": "Rimae Ritter"
  },
  "rimae romer": {
    "body": "Moon",
    "lat": 26.9834,
    "lon": 34.8633,
    "lon_180": 34.86330000000001,
    "feature_type": null,
    "raw_name": "Rimae Römer"
  },
  "rimae secchi": {
    "body": "Moon",
    "lat": 0.9927,
    "lon": 44.0832,
    "lon_180": 44.083200000000005,
    "feature_type": null,
    "raw_name": "Rimae Secchi"
  },
  "rimae triesnecker": {
    "body": "Moon",
    "lat": 5.1042,
    "lon": 4.8329,
    "lon_180": 4.832899999999995,
    "feature_type": null,
    "raw_name": "Rimae Triesnecker"
  },
  "rimae vasco da gama": {
    "body": "Moon",
    "lat": 11.5457,
    "lon": -84.0334,
    "lon_180": -84.0334,
    "feature_type": null,
    "raw_name": "Rimae Vasco da Gama"
  },
  "alexander": {
    "body": "Moon",
    "lat": 40.2515,
    "lon": 13.6932,
    "lon_180": 13.69319999999999,
    "feature_type": null,
    "raw_name": "Alexander"
  },
  "rimae prinz": {
    "body": "Moon",
    "lat": 27.0452,
    "lon": -43.5059,
    "lon_180": -43.5059,
    "feature_type": null,
    "raw_name": "Rimae Prinz"
  },
  "rimae riccioli": {
    "body": "Moon",
    "lat": -1.5152,
    "lon": -73.071,
    "lon_180": -73.071,
    "feature_type": null,
    "raw_name": "Rimae Riccioli"
  },
  "abulfeda": {
    "body": "Moon",
    "lat": -13.8651,
    "lon": 13.9103,
    "lon_180": 13.910300000000007,
    "feature_type": null,
    "raw_name": "Abulfeda"
  },
  "acosta": {
    "body": "Moon",
    "lat": -5.6453,
    "lon": 60.1395,
    "lon_180": 60.1395,
    "feature_type": null,
    "raw_name": "Acosta"
  },
  "hainzel t": {
    "body": "Moon",
    "lat": -40.1979,
    "lon": -37.3238,
    "lon_180": -37.323800000000006,
    "feature_type": null,
    "raw_name": "Hainzel T"
  },
  "adams": {
    "body": "Moon",
    "lat": -31.8916,
    "lon": 68.3869,
    "lon_180": 68.3869,
    "feature_type": null,
    "raw_name": "Adams"
  },
  "landsteiner": {
    "body": "Moon",
    "lat": 31.2983,
    "lon": -14.7897,
    "lon_180": -14.78970000000001,
    "feature_type": null,
    "raw_name": "Landsteiner"
  },
  "agatharchides": {
    "body": "Moon",
    "lat": -19.8537,
    "lon": -31.1146,
    "lon_180": -31.114599999999996,
    "feature_type": null,
    "raw_name": "Agatharchides"
  },
  "agrippa": {
    "body": "Moon",
    "lat": 4.0964,
    "lon": 10.4741,
    "lon_180": 10.474099999999993,
    "feature_type": null,
    "raw_name": "Agrippa"
  },
  "airy": {
    "body": "Moon",
    "lat": -18.1416,
    "lon": 5.6149,
    "lon_180": 5.614900000000006,
    "feature_type": null,
    "raw_name": "Airy"
  },
  "mare humorum": {
    "body": "Moon",
    "lat": -24.4785,
    "lon": -38.5716,
    "lon_180": -38.57159999999999,
    "feature_type": null,
    "raw_name": "Mare Humorum"
  },
  "al-bakri": {
    "body": "Moon",
    "lat": 14.3354,
    "lon": 20.2451,
    "lon_180": 20.245100000000008,
    "feature_type": null,
    "raw_name": "Al-Bakri"
  },
  "albategnius": {
    "body": "Moon",
    "lat": -11.24,
    "lon": 4.0092,
    "lon_180": 4.009199999999993,
    "feature_type": null,
    "raw_name": "Albategnius"
  },
  "herodotus s": {
    "body": "Moon",
    "lat": 27.6814,
    "lon": -53.4348,
    "lon_180": -53.434799999999996,
    "feature_type": null,
    "raw_name": "Herodotus S"
  },
  "aitken": {
    "body": "Moon",
    "lat": -16.443,
    "lon": 172.9583,
    "lon_180": 172.9583,
    "feature_type": null,
    "raw_name": "Aitken"
  },
  "akis": {
    "body": "Moon",
    "lat": 20.0109,
    "lon": -31.7594,
    "lon_180": -31.7594,
    "feature_type": null,
    "raw_name": "Akis"
  },
  "al-khwarizmi": {
    "body": "Moon",
    "lat": 7.0219,
    "lon": 107.0062,
    "lon_180": 107.00620000000004,
    "feature_type": null,
    "raw_name": "Al-Khwarizmi"
  },
  "al-marrakushi": {
    "body": "Moon",
    "lat": -10.4467,
    "lon": 55.7703,
    "lon_180": 55.77029999999999,
    "feature_type": null,
    "raw_name": "Al-Marrakushi"
  },
  "al-biruni": {
    "body": "Moon",
    "lat": 18.0713,
    "lon": 92.6162,
    "lon_180": 92.61619999999999,
    "feature_type": null,
    "raw_name": "Al-Biruni"
  },
  "boris": {
    "body": "Moon",
    "lat": 30.5339,
    "lon": -33.5007,
    "lon_180": -33.500699999999995,
    "feature_type": null,
    "raw_name": "Boris"
  },
  "alden": {
    "body": "Moon",
    "lat": -23.5084,
    "lon": 111.1141,
    "lon_180": 111.11410000000001,
    "feature_type": null,
    "raw_name": "Alden"
  },
  "billy k": {
    "body": "Moon",
    "lat": -12.9692,
    "lon": -48.857,
    "lon_180": -48.857,
    "feature_type": null,
    "raw_name": "Billy K"
  },
  "arnold": {
    "body": "Moon",
    "lat": 66.9846,
    "lon": 35.8286,
    "lon_180": 35.828599999999994,
    "feature_type": null,
    "raw_name": "Arnold"
  },
  "krogh": {
    "body": "Moon",
    "lat": 9.4127,
    "lon": 65.6891,
    "lon_180": 65.6891,
    "feature_type": null,
    "raw_name": "Krogh"
  },
  "arrhenius": {
    "body": "Moon",
    "lat": -55.5837,
    "lon": -91.4537,
    "lon_180": -91.4537,
    "feature_type": null,
    "raw_name": "Arrhenius"
  },
  "herodotus t": {
    "body": "Moon",
    "lat": 27.8828,
    "lon": -53.8056,
    "lon_180": -53.8056,
    "feature_type": null,
    "raw_name": "Herodotus T"
  },
  "alder": {
    "body": "Moon",
    "lat": -48.6255,
    "lon": -177.8837,
    "lon_180": -177.8837,
    "feature_type": null,
    "raw_name": "Alder"
  },
  "mons hadley delta": {
    "body": "Moon",
    "lat": 25.723,
    "lon": 3.7065,
    "lon_180": 3.7065000000000055,
    "feature_type": null,
    "raw_name": "Mons Hadley Delta"
  },
  "blanchinus m": {
    "body": "Moon",
    "lat": -25.2202,
    "lon": 2.5778,
    "lon_180": 2.5777999999999963,
    "feature_type": null,
    "raw_name": "Blanchinus M"
  },
  "artamonov": {
    "body": "Moon",
    "lat": 25.4387,
    "lon": 103.7853,
    "lon_180": 103.7853,
    "feature_type": null,
    "raw_name": "Artamonov"
  },
  "amontons": {
    "body": "Moon",
    "lat": -5.3372,
    "lon": 46.7779,
    "lon_180": 46.77789999999999,
    "feature_type": null,
    "raw_name": "Amontons"
  },
  "andronov": {
    "body": "Moon",
    "lat": -22.6807,
    "lon": 146.1082,
    "lon_180": 146.1082,
    "feature_type": null,
    "raw_name": "Andronov"
  },
  "amundsen": {
    "body": "Moon",
    "lat": -84.4398,
    "lon": 83.0691,
    "lon_180": 83.06909999999999,
    "feature_type": null,
    "raw_name": "Amundsen"
  },
  "anaximander": {
    "body": "Moon",
    "lat": 66.9671,
    "lon": -51.4417,
    "lon_180": -51.4417,
    "feature_type": null,
    "raw_name": "Anaximander"
  },
  "mare moscoviense": {
    "body": "Moon",
    "lat": 27.2816,
    "lon": 148.1225,
    "lon_180": 148.1225,
    "feature_type": null,
    "raw_name": "Mare Moscoviense"
  },
  "anaxagoras": {
    "body": "Moon",
    "lat": 73.481,
    "lon": -10.1712,
    "lon_180": -10.171199999999999,
    "feature_type": null,
    "raw_name": "Anaxagoras"
  },
  "ango": {
    "body": "Moon",
    "lat": 20.4775,
    "lon": -32.338,
    "lon_180": -32.337999999999994,
    "feature_type": null,
    "raw_name": "Ango"
  },